header: 
  seq: 10768
  stamp: 
    secs: 1638974345
    nsecs: 908647649
  frame_id: "imu"
orientation: 
  x: 0.875725984573
  y: -0.482735157013
  z: 0.0058077936992
  w: 0.00608952669427
orientation_covariance: [2.1798977470690366e-07, 0.0, 0.0, 0.0, 2.1580887134298276e-07, 0.0, 0.0, 0.0, 1.5494735846943106e-06]
angular_velocity: 
  x: -9.73660498857e-05
  y: 3.28120950144e-05
  z: -6.94449954608e-06
angular_velocity_covariance: [0.01, 0.0, 0.0, 0.0, 0.01, 0.0, 0.0, 0.0, 0.01]
linear_acceleration: 
  x: 0.00816003791988
  y: 0.000290556810796
  z: 10.171207428
linear_acceleration_covariance: [0.01, 0.0, 0.0, 0.0, 0.01, 0.0, 0.0, 0.0, 0.01]
---
header: 
  seq: 10769
  stamp: 
    secs: 1638974345
    nsecs: 933755416
  frame_id: "imu"
orientation: 
  x: 0.875710308552
  y: -0.482763588428
  z: 0.00579719711095
  w: 0.00609925668687
orientation_covariance: [2.1674419943575573e-07, 0.0, 0.0, 0.0, 2.145523545806187e-07, 0.0, 0.0, 0.0, 1.5477449987720553e-06]
angular_velocity: 
  x: -0.0023884261027
  y: 0.000352742616087
  z: -0.000148088351125
angular_velocity_covariance: [0.01, 0.0, 0.0, 0.0, 0.01, 0.0, 0.0, 0.0, 0.01]
linear_acceleration: 
  x: 0.00417229020968
  y: -0.0168664325029
  z: 10.2111988068
linear_acceleration_covariance: [0.01, 0.0, 0.0, 0.0, 0.01, 0.0, 0.0, 0.0, 0.01]
---
header: 
  seq: 10770
  stamp: 
    secs: 1638974345
    nsecs: 958900003
  frame_id: "imu"
orientation: 
  x: 0.875742256641
  y: -0.482705652714
  z: 0.00579776335508
  w: 0.00610400550067
orientation_covariance: [2.1543479941007926e-07, 0.0, 0.0, 0.0, 2.1326710702232873e-07, 0.0, 0.0, 0.0, 1.548398971092553e-06]
angular_velocity: 
  x: 0.000299437378999
  y: -0.00122054968961
  z: 0.000462689611595
angular_velocity_covariance: [0.01, 0.0, 0.0, 0.0, 0.01, 0.0, 0.0, 0.0, 0.01]
linear_acceleration: 
  x: 0.0261342190206
  y: -0.0509457364678
  z: 10.2173261642
linear_acceleration_covariance: [0.01, 0.0, 0.0, 0.0, 0.01, 0.0, 0.0, 0.0, 0.01]
---
header: 
  seq: 10771
  stamp: 
    secs: 1638974345
    nsecs: 983282272
  frame_id: "imu"
orientation: 
  x: 0.875762939453
  y: -0.482668280602
  z: 0.00579255959019
  w: 0.00609320169315
orientation_covariance: [2.1424762390526065e-07, 0.0, 0.0, 0.0, 2.1209754552726574e-07, 0.0, 0.0, 0.0, 1.5487122536679606e-06]
angular_velocity: 
  x: 0.00104537489824
  y: 0.00110373983625
  z: -0.000130817104946
angular_velocity_covariance: [0.01, 0.0, 0.0, 0.0, 0.01, 0.0, 0.0, 0.0, 0.01]
linear_acceleration: 
  x: 0.0183479171246
  y: -0.0166655741632
  z: 10.2073898315
linear_acceleration_covariance: [0.01, 0.0, 0.0, 0.0, 0.01, 0.0, 0.0, 0.0, 0.01]
---
header: 
  seq: 10772
  stamp: 
    secs: 1638974346
    nsecs:   8689911
  frame_id: "imu"
orientation: 
  x: 0.875755369663
  y: -0.482682079077
  z: 0.00579143036157
  w: 0.00609717983752
orientation_covariance: [2.1320048423344012e-07, 0.0, 0.0, 0.0, 2.1107871027258292e-07, 0.0, 0.0, 0.0, 1.5499559872897868e-06]
angular_velocity: 
  x: -0.000596832367592
  y: -0.00102466263343
  z: -0.00109849963337
angular_velocity_covariance: [0.01, 0.0, 0.0, 0.0, 0.01, 0.0, 0.0, 0.0, 0.01]
linear_acceleration: 
  x: 0.00137320230715
  y: -0.00569332111627
  z: 10.2113666534
linear_acceleration_covariance: [0.01, 0.0, 0.0, 0.0, 0.01, 0.0, 0.0, 0.0, 0.01]
---
header: 
  seq: 10773
  stamp: 
    secs: 1638974346
    nsecs:  33741811
  frame_id: "imu"
orientation: 
  x: 0.87574660778
  y: -0.482697635889
  z: 0.00579062150791
  w: 0.00611444190145
orientation_covariance: [2.1197033387113035e-07, 0.0, 0.0, 0.0, 2.098812743441934e-07, 0.0, 0.0, 0.0, 1.5512776368306306e-06]
angular_velocity: 
  x: -0.00207192171365
  y: -0.00130480260123
  z: -0.000731053180061
angular_velocity_covariance: [0.01, 0.0, 0.0, 0.0, 0.01, 0.0, 0.0, 0.0, 0.01]
linear_acceleration: 
  x: -0.00956095196307
  y: -0.0153606170788
  z: 10.1765327454
linear_acceleration_covariance: [0.01, 0.0, 0.0, 0.0, 0.01, 0.0, 0.0, 0.0, 0.01]
---
header: 
  seq: 10774
  stamp: 
    secs: 1638974346
    nsecs:  58816264
  frame_id: "imu"
orientation: 
  x: 0.875760316849
  y: -0.482672780752
  z: 0.00578583125025
  w: 0.00611903658137
orientation_covariance: [2.1156733501270502e-07, 0.0, 0.0, 0.0, 2.0951062184487524e-07, 0.0, 0.0, 0.0, 1.5538286092533507e-06]
angular_velocity: 
  x: -0.000449960032711
  y: 0.00149097573012
  z: -0.000227140117204
angular_velocity_covariance: [0.01, 0.0, 0.0, 0.0, 0.01, 0.0, 0.0, 0.0, 0.01]
linear_acceleration: 
  x: 0.00292214681394
  y: -0.0339516289532
  z: 10.2312555313
linear_acceleration_covariance: [0.01, 0.0, 0.0, 0.0, 0.01, 0.0, 0.0, 0.0, 0.01]
---
header: 
  seq: 10775
  stamp: 
    secs: 1638974346
    nsecs:  83769017
  frame_id: "imu"
orientation: 
  x: 0.87576508522
  y: -0.482664257288
  z: 0.0057814582251
  w: 0.00610801950097
orientation_covariance: [2.111961223133118e-07, 0.0, 0.0, 0.0, 2.0916604753812614e-07, 0.0, 0.0, 0.0, 1.5560338802254697e-06]
angular_velocity: 
  x: 0.00111313024536
  y: 0.00130438560154
  z: 0.00105439056642
angular_velocity_covariance: [0.01, 0.0, 0.0, 0.0, 0.01, 0.0, 0.0, 0.0, 0.01]
linear_acceleration: 
  x: 0.0116656925529
  y: -0.0163617543876
  z: 10.2021379471
linear_acceleration_covariance: [0.01, 0.0, 0.0, 0.0, 0.01, 0.0, 0.0, 0.0, 0.01]
---
header: 
  seq: 10776
  stamp: 
    secs: 1638974346
    nsecs: 108685280
  frame_id: "imu"
orientation: 
  x: 0.87575596571
  y: -0.482680857182
  z: 0.00578256556764
  w: 0.00611263606697
orientation_covariance: [2.1079457688279222e-07, 0.0, 0.0, 0.0, 2.0879469047064896e-07, 0.0, 0.0, 0.0, 1.5584832376243887e-06]
angular_velocity: 
  x: 0.000201578019187
  y: -0.000715688802302
  z: -0.000246286857873
angular_velocity_covariance: [0.01, 0.0, 0.0, 0.0, 0.01, 0.0, 0.0, 0.0, 0.01]
linear_acceleration: 
  x: -0.0031658471562
  y: -0.0334124825895
  z: 10.2288990021
linear_acceleration_covariance: [0.01, 0.0, 0.0, 0.0, 0.01, 0.0, 0.0, 0.0, 0.01]
---
header: 
  seq: 10777
  stamp: 
    secs: 1638974346
    nsecs: 133715280
  frame_id: "imu"
orientation: 
  x: 0.875747084618
  y: -0.482696712017
  z: 0.00578787969425
  w: 0.00612944783643
orientation_covariance: [2.102179408889724e-07, 0.0, 0.0, 0.0, 2.082532274815031e-07, 0.0, 0.0, 0.0, 1.561112588000973e-06]
angular_velocity: 
  x: -0.00198425841518
  y: 0.0010670326883
  z: -0.0011361775687
angular_velocity_covariance: [0.01, 0.0, 0.0, 0.0, 0.01, 0.0, 0.0, 0.0, 0.01]
linear_acceleration: 
  x: -0.00531185185537
  y: -0.0273167490959
  z: 10.2240171432
linear_acceleration_covariance: [0.01, 0.0, 0.0, 0.0, 0.01, 0.0, 0.0, 0.0, 0.01]
---
header: 
  seq: 10778
  stamp: 
    secs: 1638974346
    nsecs: 158684481
  frame_id: "imu"
orientation: 
  x: 0.87575674057
  y: -0.482679158449
  z: 0.0057945298031
  w: 0.00612672744319
orientation_covariance: [2.1001673692598064e-07, 0.0, 0.0, 0.0, 2.0808642041254117e-07, 0.0, 0.0, 0.0, 1.5642948043629144e-06]
angular_velocity: 
  x: -0.000793940736912
  y: 0.00138662697282
  z: 0.000188891586731
angular_velocity_covariance: [0.01, 0.0, 0.0, 0.0, 0.01, 0.0, 0.0, 0.0, 0.01]
linear_acceleration: 
  x: 0.00784019660205
  y: -0.0311306323856
  z: 10.2243623734
linear_acceleration_covariance: [0.01, 0.0, 0.0, 0.0, 0.01, 0.0, 0.0, 0.0, 0.01]
---
header: 
  seq: 10779
  stamp: 
    secs: 1638974346
    nsecs: 183677602
  frame_id: "imu"
orientation: 
  x: 0.875761926174
  y: -0.482670068741
  z: 0.00578522123396
  w: 0.00610546953976
orientation_covariance: [2.098024360013555e-07, 0.0, 0.0, 0.0, 2.079016846475565e-07, 0.0, 0.0, 0.0, 1.567141318484622e-06]
angular_velocity: 
  x: 0.00213517178781
  y: -0.00113470572978
  z: 0.000240298657445
angular_velocity_covariance: [0.01, 0.0, 0.0, 0.0, 0.01, 0.0, 0.0, 0.0, 0.01]
linear_acceleration: 
  x: -0.00726033281535
  y: -0.0232581086457
  z: 10.2029390335
linear_acceleration_covariance: [0.01, 0.0, 0.0, 0.0, 0.01, 0.0, 0.0, 0.0, 0.01]
---
header: 
  seq: 10780
  stamp: 
    secs: 1638974346
    nsecs: 208670648
  frame_id: "imu"
orientation: 
  x: 0.875756144524
  y: -0.482680588961
  z: 0.00578772043809
  w: 0.00610227650031
orientation_covariance: [2.0953026424828937e-07, 0.0, 0.0, 0.0, 2.0765545840605373e-07, 0.0, 0.0, 0.0, 1.569655768234804e-06]
angular_velocity: 
  x: 0.000825180846732
  y: 0.000105936756881
  z: 0.000592844153289
angular_velocity_covariance: [0.01, 0.0, 0.0, 0.0, 0.01, 0.0, 0.0, 0.0, 0.01]
linear_acceleration: 
  x: -0.0159256011248
  y: -0.0263708569109
  z: 10.225153923
linear_acceleration_covariance: [0.01, 0.0, 0.0, 0.0, 0.01, 0.0, 0.0, 0.0, 0.01]
---
header: 
  seq: 10781
  stamp: 
    secs: 1638974346
    nsecs: 233839734
  frame_id: "imu"
orientation: 
  x: 0.875747263432
  y: -0.482696533203
  z: 0.00578052178025
  w: 0.00611157389358
orientation_covariance: [2.0940632420655685e-07, 0.0, 0.0, 0.0, 2.0755277883951404e-07, 0.0, 0.0, 0.0, 1.5720577754046162e-06]
angular_velocity: 
  x: -0.000633028743323
  y: -0.0011459456291
  z: -0.000518651679158
angular_velocity_covariance: [0.01, 0.0, 0.0, 0.0, 0.01, 0.0, 0.0, 0.0, 0.01]
linear_acceleration: 
  x: 0.0358585193753
  y: -0.0357795506716
  z: 10.2058563232
linear_acceleration_covariance: [0.01, 0.0, 0.0, 0.0, 0.01, 0.0, 0.0, 0.0, 0.01]
---
header: 
  seq: 10782
  stamp: 
    secs: 1638974346
    nsecs: 258660999
  frame_id: "imu"
orientation: 
  x: 0.875756978989
  y: -0.482679218054
  z: 0.0057790838182
  w: 0.00610038125888
orientation_covariance: [2.090603492842355e-07, 0.0, 0.0, 0.0, 2.0724089662618516e-07, 0.0, 0.0, 0.0, 1.575216522122325e-06]
angular_velocity: 
  x: 9.93235444184e-05
  y: -0.000479575479403
  z: 0.000286964292172
angular_velocity_covariance: [0.01, 0.0, 0.0, 0.0, 0.01, 0.0, 0.0, 0.0, 0.01]
linear_acceleration: 
  x: 0.00400659954175
  y: -0.0096029676497
  z: 10.1959972382
linear_acceleration_covariance: [0.01, 0.0, 0.0, 0.0, 0.01, 0.0, 0.0, 0.0, 0.01]
---
header: 
  seq: 10783
  stamp: 
    secs: 1638974346
    nsecs: 283819922
  frame_id: "imu"
orientation: 
  x: 0.875762939453
  y: -0.482668548822
  z: 0.00576842017472
  w: 0.00608727708459
orientation_covariance: [2.0849591857015377e-07, 0.0, 0.0, 0.0, 2.0670910961640208e-07, 0.0, 0.0, 0.0, 1.5780183915388744e-06]
angular_velocity: 
  x: 0.00284147611819
  y: 0.000173045133124
  z: -6.55052735965e-06
angular_velocity_covariance: [0.01, 0.0, 0.0, 0.0, 0.01, 0.0, 0.0, 0.0, 0.01]
linear_acceleration: 
  x: 0.027156021446
  y: -0.0159074831754
  z: 10.2347822189
linear_acceleration_covariance: [0.01, 0.0, 0.0, 0.0, 0.01, 0.0, 0.0, 0.0, 0.01]
---
header: 
  seq: 10784
  stamp: 
    secs: 1638974346
    nsecs: 308741475
  frame_id: "imu"
orientation: 
  x: 0.875757277012
  y: -0.482678800821
  z: 0.00577090587467
  w: 0.00609268061817
orientation_covariance: [2.0771780137673379e-07, 0.0, 0.0, 0.0, 2.0596844663431932e-07, 0.0, 0.0, 0.0, 1.580959763841722e-06]
angular_velocity: 
  x: -0.000131875553052
  y: -0.00164930149913
  z: 6.94287446095e-05
angular_velocity_covariance: [0.01, 0.0, 0.0, 0.0, 0.01, 0.0, 0.0, 0.0, 0.01]
linear_acceleration: 
  x: -0.00946082919836
  y: -0.0023577674292
  z: 10.2475070953
linear_acceleration_covariance: [0.01, 0.0, 0.0, 0.0, 0.01, 0.0, 0.0, 0.0, 0.01]
---
header: 
  seq: 10785
  stamp: 
    secs: 1638974346
    nsecs: 333767381
  frame_id: "imu"
orientation: 
  x: 0.875747680664
  y: -0.48269623518
  z: 0.00576771376655
  w: 0.00609572092071
orientation_covariance: [2.0669811311684624e-07, 0.0, 0.0, 0.0, 2.0498900830976901e-07, 0.0, 0.0, 0.0, 1.5838675434807953e-06]
angular_velocity: 
  x: -0.000565809954423
  y: -0.000592823140323
  z: -0.000569132622331
angular_velocity_covariance: [0.01, 0.0, 0.0, 0.0, 0.01, 0.0, 0.0, 0.0, 0.01]
linear_acceleration: 
  x: 0.00118961406406
  y: -0.000352395349182
  z: 10.2139968872
linear_acceleration_covariance: [0.01, 0.0, 0.0, 0.0, 0.01, 0.0, 0.0, 0.0, 0.01]
---
header: 
  seq: 10786
  stamp: 
    secs: 1638974346
    nsecs: 358788211
  frame_id: "imu"
orientation: 
  x: 0.875761449337
  y: -0.482671201229
  z: 0.00576752005145
  w: 0.00609687902033
orientation_covariance: [2.0640970731643383e-07, 0.0, 0.0, 0.0, 2.047331868957663e-07, 0.0, 0.0, 0.0, 1.5872183315075753e-06]
angular_velocity: 
  x: 0.000260599335888
  y: -0.00121075415518
  z: 0.000220740490477
angular_velocity_covariance: [0.01, 0.0, 0.0, 0.0, 0.01, 0.0, 0.0, 0.0, 0.01]
linear_acceleration: 
  x: 0.0113848559558
  y: -0.0342080332339
  z: 10.2348489761
linear_acceleration_covariance: [0.01, 0.0, 0.0, 0.0, 0.01, 0.0, 0.0, 0.0, 0.01]
---
header: 
  seq: 10787
  stamp: 
    secs: 1638974346
    nsecs: 383775219
  frame_id: "imu"
orientation: 
  x: 0.875768005848
  y: -0.482659548521
  z: 0.00575653696433
  w: 0.00609510671347
orientation_covariance: [2.0616897187399408e-07, 0.0, 0.0, 0.0, 2.0451962943345846e-07, 0.0, 0.0, 0.0, 1.5902374615674033e-06]
angular_velocity: 
  x: 0.00322384340689
  y: -0.000182818926987
  z: -0.000557449122425
angular_velocity_covariance: [0.01, 0.0, 0.0, 0.0, 0.01, 0.0, 0.0, 0.0, 0.01]
linear_acceleration: 
  x: 0.00954912044108
  y: -0.0182210858911
  z: 10.2200632095
linear_acceleration_covariance: [0.01, 0.0, 0.0, 0.0, 0.01, 0.0, 0.0, 0.0, 0.01]
---
header: 
  seq: 10788
  stamp: 
    secs: 1638974346
    nsecs: 408743225
  frame_id: "imu"
orientation: 
  x: 0.875758111477
  y: -0.482677459717
  z: 0.00576173281297
  w: 0.00609340425581
orientation_covariance: [2.0651881095488245e-07, 0.0, 0.0, 0.0, 2.048864604508367e-07, 0.0, 0.0, 0.0, 1.5932184259342416e-06]
angular_velocity: 
  x: -0.000923563377
  y: 1.07354280772e-05
  z: -0.000302578991977
angular_velocity_covariance: [0.01, 0.0, 0.0, 0.0, 0.01, 0.0, 0.0, 0.0, 0.01]
linear_acceleration: 
  x: 0.0115711092949
  y: 0.0172707308084
  z: 10.2136955261
linear_acceleration_covariance: [0.01, 0.0, 0.0, 0.0, 0.01, 0.0, 0.0, 0.0, 0.01]
---
header: 
  seq: 10789
  stamp: 
    secs: 1638974346
    nsecs: 433813856
  frame_id: "imu"
orientation: 
  x: 0.875754117966
  y: -0.482684314251
  z: 0.00577123137191
  w: 0.0061163068749
orientation_covariance: [2.0708902302901412e-07, 0.0, 0.0, 0.0, 2.0546458372611258e-07, 0.0, 0.0, 0.0, 1.5957816266638535e-06]
angular_velocity: 
  x: -0.00198096223176
  y: 0.000792401144281
  z: -0.000453322078101
angular_velocity_covariance: [0.01, 0.0, 0.0, 0.0, 0.01, 0.0, 0.0, 0.0, 0.01]
linear_acceleration: 
  x: -0.0144192362204
  y: -0.0282575208694
  z: 10.204577446
linear_acceleration_covariance: [0.01, 0.0, 0.0, 0.0, 0.01, 0.0, 0.0, 0.0, 0.01]
---
header: 
  seq: 10790
  stamp: 
    secs: 1638974346
    nsecs: 458642845
  frame_id: "imu"
orientation: 
  x: 0.875767111778
  y: -0.482660621405
  z: 0.00576714100316
  w: 0.00611747708172
orientation_covariance: [2.0753832397499744e-07, 0.0, 0.0, 0.0, 2.0592923254406264e-07, 0.0, 0.0, 0.0, 1.5988588715976307e-06]
angular_velocity: 
  x: 0.000512104656082
  y: 0.00179508130532
  z: 0.000174303306267
angular_velocity_covariance: [0.01, 0.0, 0.0, 0.0, 0.01, 0.0, 0.0, 0.0, 0.01]
linear_acceleration: 
  x: 0.0125233577564
  y: -0.0251191649586
  z: 10.2145166397
linear_acceleration_covariance: [0.01, 0.0, 0.0, 0.0, 0.01, 0.0, 0.0, 0.0, 0.01]
---
header: 
  seq: 10791
  stamp: 
    secs: 1638974346
    nsecs: 483817999
  frame_id: "imu"
orientation: 
  x: 0.875772058964
  y: -0.482651978731
  z: 0.00576258543879
  w: 0.00610512401909
orientation_covariance: [2.0783077739900833e-07, 0.0, 0.0, 0.0, 2.0623191806962445e-07, 0.0, 0.0, 0.0, 1.601329515529597e-06]
angular_velocity: 
  x: 0.00146541930735
  y: -0.00161241320893
  z: -0.000133006979013
angular_velocity_covariance: [0.01, 0.0, 0.0, 0.0, 0.01, 0.0, 0.0, 0.0, 0.01]
linear_acceleration: 
  x: -0.00769628584385
  y: -0.0146394856274
  z: 10.2439498901
linear_acceleration_covariance: [0.01, 0.0, 0.0, 0.0, 0.01, 0.0, 0.0, 0.0, 0.01]
---
header: 
  seq: 10792
  stamp: 
    secs: 1638974346
    nsecs: 508682095
  frame_id: "imu"
orientation: 
  x: 0.875767588615
  y: -0.482660114765
  z: 0.00576300313696
  w: 0.00610158545896
orientation_covariance: [2.0807725582221042e-07, 0.0, 0.0, 0.0, 2.064850398109577e-07, 0.0, 0.0, 0.0, 1.6034658063853918e-06]
angular_velocity: 
  x: -0.000934163923375
  y: -0.000572445744183
  z: 1.74992255779e-05
angular_velocity_covariance: [0.01, 0.0, 0.0, 0.0, 0.01, 0.0, 0.0, 0.0, 0.01]
linear_acceleration: 
  x: -0.0175603609532
  y: 0.00230246270075
  z: 10.2595424652
linear_acceleration_covariance: [0.01, 0.0, 0.0, 0.0, 0.01, 0.0, 0.0, 0.0, 0.01]
---
header: 
  seq: 10793
  stamp: 
    secs: 1638974346
    nsecs: 533668528
  frame_id: "imu"
orientation: 
  x: 0.875760853291
  y: -0.482672005892
  z: 0.00576668092981
  w: 0.0061180992052
orientation_covariance: [2.08115546761134e-07, 0.0, 0.0, 0.0, 2.0652740929868524e-07, 0.0, 0.0, 0.0, 1.6051352699163522e-06]
angular_velocity: 
  x: -0.000696347444318
  y: 0.000185481185326
  z: -0.000652000133414
angular_velocity_covariance: [0.01, 0.0, 0.0, 0.0, 0.01, 0.0, 0.0, 0.0, 0.01]
linear_acceleration: 
  x: 0.0192089900374
  y: 0.0107744289562
  z: 10.2181806564
linear_acceleration_covariance: [0.01, 0.0, 0.0, 0.0, 0.01, 0.0, 0.0, 0.0, 0.01]
---
header: 
  seq: 10794
  stamp: 
    secs: 1638974346
    nsecs: 558701158
  frame_id: "imu"
orientation: 
  x: 0.875778615475
  y: -0.482639759779
  z: 0.00576703669503
  w: 0.00612339936197
orientation_covariance: [2.0794621536370394e-07, 0.0, 0.0, 0.0, 2.063755020392608e-07, 0.0, 0.0, 0.0, 1.6076836326457383e-06]
angular_velocity: 
  x: 0.000454878201708
  y: -0.00108267180622
  z: -0.000169905091752
angular_velocity_covariance: [0.01, 0.0, 0.0, 0.0, 0.01, 0.0, 0.0, 0.0, 0.01]
linear_acceleration: 
  x: -0.00566856795922
  y: 0.00453673955053
  z: 10.21966362
linear_acceleration_covariance: [0.01, 0.0, 0.0, 0.0, 0.01, 0.0, 0.0, 0.0, 0.01]
---
header: 
  seq: 10795
  stamp: 
    secs: 1638974346
    nsecs: 583250311
  frame_id: "imu"
orientation: 
  x: 0.875789403915
  y: -0.482620418072
  z: 0.00575930671766
  w: 0.00611406983808
orientation_covariance: [2.0757736511357672e-07, 0.0, 0.0, 0.0, 2.0602005912882076e-07, 0.0, 0.0, 0.0, 1.6096720394580323e-06]
angular_velocity: 
  x: 0.000798082328402
  y: -0.000666647800244
  z: -0.000147116850712
angular_velocity_covariance: [0.01, 0.0, 0.0, 0.0, 0.01, 0.0, 0.0, 0.0, 0.01]
linear_acceleration: 
  x: 0.00127301295288
  y: -0.0342202410102
  z: 10.220366478
linear_acceleration_covariance: [0.01, 0.0, 0.0, 0.0, 0.01, 0.0, 0.0, 0.0, 0.01]
---
header: 
  seq: 10796
  stamp: 
    secs: 1638974346
    nsecs: 608710842
  frame_id: "imu"
orientation: 
  x: 0.875784218311
  y: -0.48262989521
  z: 0.00575743988156
  w: 0.00611245073378
orientation_covariance: [2.0711032695742093e-07, 0.0, 0.0, 0.0, 2.0556668656154732e-07, 0.0, 0.0, 0.0, 1.6115484296671788e-06]
angular_velocity: 
  x: -0.000920272490475
  y: -0.000717753195204
  z: 0.000652056536637
angular_velocity_covariance: [0.01, 0.0, 0.0, 0.0, 0.01, 0.0, 0.0, 0.0, 0.01]
linear_acceleration: 
  x: 0.0220449026674
  y: -0.00482759810984
  z: 10.2211256027
linear_acceleration_covariance: [0.01, 0.0, 0.0, 0.0, 0.01, 0.0, 0.0, 0.0, 0.01]
---
header: 
  seq: 10797
  stamp: 
    secs: 1638974346
    nsecs: 633680858
  frame_id: "imu"
orientation: 
  x: 0.875778377056
  y: -0.482640236616
  z: 0.00576736778021
  w: 0.00612383149564
orientation_covariance: [2.0661943164764987e-07, 0.0, 0.0, 0.0, 2.0507447464318163e-07, 0.0, 0.0, 0.0, 1.6121318680713934e-06]
angular_velocity: 
  x: -0.00115954759531
  y: 0.0020005479455
  z: -3.72383983631e-05
angular_velocity_covariance: [0.01, 0.0, 0.0, 0.0, 0.01, 0.0, 0.0, 0.0, 0.01]
linear_acceleration: 
  x: -0.0164411365986
  y: -0.0152699220926
  z: 10.1958789825
linear_acceleration_covariance: [0.01, 0.0, 0.0, 0.0, 0.01, 0.0, 0.0, 0.0, 0.01]
---
header: 
  seq: 10798
  stamp: 
    secs: 1638974346
    nsecs: 658658577
  frame_id: "imu"
orientation: 
  x: 0.875798642635
  y: -0.482603400946
  z: 0.00576638942584
  w: 0.00612642941996
orientation_covariance: [2.0659543412065684e-07, 0.0, 0.0, 0.0, 2.0505592549283278e-07, 0.0, 0.0, 0.0, 1.6138861207981066e-06]
angular_velocity: 
  x: -0.000926500710193
  y: 0.00129258679226
  z: -0.000570391654037
angular_velocity_covariance: [0.01, 0.0, 0.0, 0.0, 0.01, 0.0, 0.0, 0.0, 0.01]
linear_acceleration: 
  x: 0.00305064907297
  y: -0.0525414198637
  z: 10.1955251694
linear_acceleration_covariance: [0.01, 0.0, 0.0, 0.0, 0.01, 0.0, 0.0, 0.0, 0.01]
---
header: 
  seq: 10799
  stamp: 
    secs: 1638974346
    nsecs: 683871911
  frame_id: "imu"
orientation: 
  x: 0.875813305378
  y: -0.482576757669
  z: 0.0057765878737
  w: 0.00611835438758
orientation_covariance: [2.065040375862654e-07, 0.0, 0.0, 0.0, 2.0496045480741283e-07, 0.0, 0.0, 0.0, 1.6147409667323027e-06]
angular_velocity: 
  x: 0.00131257774774
  y: 0.000682201585732
  z: -0.000101359582914
angular_velocity_covariance: [0.01, 0.0, 0.0, 0.0, 0.01, 0.0, 0.0, 0.0, 0.01]
linear_acceleration: 
  x: -0.0170417428017
  y: -0.0248825326562
  z: 10.1950588226
linear_acceleration_covariance: [0.01, 0.0, 0.0, 0.0, 0.01, 0.0, 0.0, 0.0, 0.01]
---
header: 
  seq: 10800
  stamp: 
    secs: 1638974346
    nsecs: 708660494
  frame_id: "imu"
orientation: 
  x: 0.875800192356
  y: -0.482600480318
  z: 0.00577492965385
  w: 0.00611790129915
orientation_covariance: [2.0725075316910932e-07, 0.0, 0.0, 0.0, 2.0569075322452283e-07, 0.0, 0.0, 0.0, 1.6155755437092748e-06]
angular_velocity: 
  x: -0.000310563773382
  y: -0.000756852037739
  z: -0.000655780138914
angular_velocity_covariance: [0.01, 0.0, 0.0, 0.0, 0.01, 0.0, 0.0, 0.0, 0.01]
linear_acceleration: 
  x: 0.0251758657396
  y: 0.00977709237486
  z: 10.2205400467
linear_acceleration_covariance: [0.01, 0.0, 0.0, 0.0, 0.01, 0.0, 0.0, 0.0, 0.01]
---
header: 
  seq: 10801
  stamp: 
    secs: 1638974346
    nsecs: 733685208
  frame_id: "imu"
orientation: 
  x: 0.875779688358
  y: -0.482637554407
  z: 0.00577713642269
  w: 0.00613366020843
orientation_covariance: [2.0865876134309622e-07, 0.0, 0.0, 0.0, 2.070572762911998e-07, 0.0, 0.0, 0.0, 1.6151540967018197e-06]
angular_velocity: 
  x: -0.00197752914391
  y: -0.000628952751867
  z: 0.000371283793356
angular_velocity_covariance: [0.01, 0.0, 0.0, 0.0, 0.01, 0.0, 0.0, 0.0, 0.01]
linear_acceleration: 
  x: 0.0189642738551
  y: -0.0274526588619
  z: 10.2305335999
linear_acceleration_covariance: [0.01, 0.0, 0.0, 0.0, 0.01, 0.0, 0.0, 0.0, 0.01]
---
header: 
  seq: 10802
  stamp: 
    secs: 1638974346
    nsecs: 758697122
  frame_id: "imu"
orientation: 
  x: 0.875806152821
  y: -0.482589513063
  z: 0.0057812910527
  w: 0.00612936355174
orientation_covariance: [2.0995816120129201e-07, 0.0, 0.0, 0.0, 2.0833533545236146e-07, 0.0, 0.0, 0.0, 1.6163329642829863e-06]
angular_velocity: 
  x: 0.000863158726133
  y: 0.000121448923892
  z: 3.95411916543e-06
angular_velocity_covariance: [0.01, 0.0, 0.0, 0.0, 0.01, 0.0, 0.0, 0.0, 0.01]
linear_acceleration: 
  x: 0.0153937060386
  y: -0.0415390916169
  z: 10.2375564575
linear_acceleration_covariance: [0.01, 0.0, 0.0, 0.0, 0.01, 0.0, 0.0, 0.0, 0.01]
---
header: 
  seq: 10803
  stamp: 
    secs: 1638974346
    nsecs: 783772009
  frame_id: "imu"
orientation: 
  x: 0.875817298889
  y: -0.482569515705
  z: 0.00578205753118
  w: 0.00611200369895
orientation_covariance: [2.111205625761201e-07, 0.0, 0.0, 0.0, 2.094650907236157e-07, 0.0, 0.0, 0.0, 1.6164334821422835e-06]
angular_velocity: 
  x: 0.000505284289829
  y: -0.00046176291653
  z: -0.00229102186859
angular_velocity_covariance: [0.01, 0.0, 0.0, 0.0, 0.01, 0.0, 0.0, 0.0, 0.01]
linear_acceleration: 
  x: -0.0090245231986
  y: -0.00230693165213
  z: 10.1949214935
linear_acceleration_covariance: [0.01, 0.0, 0.0, 0.0, 0.01, 0.0, 0.0, 0.0, 0.01]
---
header: 
  seq: 10804
  stamp: 
    secs: 1638974346
    nsecs: 808733974
  frame_id: "imu"
orientation: 
  x: 0.87579959631
  y: -0.482601612806
  z: 0.00578840449452
  w: 0.0061151124537
orientation_covariance: [2.1216324706928363e-07, 0.0, 0.0, 0.0, 2.1047999906326347e-07, 0.0, 0.0, 0.0, 1.6167644857352667e-06]
angular_velocity: 
  x: -0.000562057073694
  y: -0.000537213869393
  z: 0.000174982633325
angular_velocity_covariance: [0.01, 0.0, 0.0, 0.0, 0.01, 0.0, 0.0, 0.0, 0.01]
linear_acceleration: 
  x: -0.051746699959
  y: -0.0158476606011
  z: 10.2389087677
linear_acceleration_covariance: [0.01, 0.0, 0.0, 0.0, 0.01, 0.0, 0.0, 0.0, 0.01]
---
header: 
  seq: 10805
  stamp: 
    secs: 1638974346
    nsecs: 833677297
  frame_id: "imu"
orientation: 
  x: 0.875779390335
  y: -0.482638210058
  z: 0.005784438923
  w: 0.006123309955
orientation_covariance: [2.1306375848212404e-07, 0.0, 0.0, 0.0, 2.1133888314634978e-07, 0.0, 0.0, 0.0, 1.615813561602526e-06]
angular_velocity: 
  x: -0.00188525393605
  y: 8.16425599623e-05
  z: -0.000975214410573
angular_velocity_covariance: [0.01, 0.0, 0.0, 0.0, 0.01, 0.0, 0.0, 0.0, 0.01]
linear_acceleration: 
  x: 0.00281978258863
  y: 0.004254873842
  z: 10.2014017105
linear_acceleration_covariance: [0.01, 0.0, 0.0, 0.0, 0.01, 0.0, 0.0, 0.0, 0.01]
---
header: 
  seq: 10806
  stamp: 
    secs: 1638974346
    nsecs: 858770873
  frame_id: "imu"
orientation: 
  x: 0.875795960426
  y: -0.482607960701
  z: 0.00579257449135
  w: 0.00612063147128
orientation_covariance: [2.138740361121986e-07, 0.0, 0.0, 0.0, 2.1213021535043584e-07, 0.0, 0.0, 0.0, 1.6165865794921766e-06]
angular_velocity: 
  x: -0.000547851610463
  y: -0.000380910292733
  z: 0.000983146135695
angular_velocity_covariance: [0.01, 0.0, 0.0, 0.0, 0.01, 0.0, 0.0, 0.0, 0.01]
linear_acceleration: 
  x: -0.00896661821753
  y: -0.0104357283562
  z: 10.237206459
linear_acceleration_covariance: [0.01, 0.0, 0.0, 0.0, 0.01, 0.0, 0.0, 0.0, 0.01]
---
header: 
  seq: 10807
  stamp: 
    secs: 1638974346
    nsecs: 883756721
  frame_id: "imu"
orientation: 
  x: 0.875804066658
  y: -0.482593357563
  z: 0.00579425040632
  w: 0.00611215969548
orientation_covariance: [2.1453759776184878e-07, 0.0, 0.0, 0.0, 2.1275978725230774e-07, 0.0, 0.0, 0.0, 1.6159891110315673e-06]
angular_velocity: 
  x: -0.000159146642545
  y: 0.000348003144609
  z: -0.000228556804359
angular_velocity_covariance: [0.01, 0.0, 0.0, 0.0, 0.01, 0.0, 0.0, 0.0, 0.01]
linear_acceleration: 
  x: 0.0129108773544
  y: -0.0494291819632
  z: 10.2408256531
linear_acceleration_covariance: [0.01, 0.0, 0.0, 0.0, 0.01, 0.0, 0.0, 0.0, 0.01]
---
header: 
  seq: 10808
  stamp: 
    secs: 1638974346
    nsecs: 908723453
  frame_id: "imu"
orientation: 
  x: 0.875778377056
  y: -0.482639998198
  z: 0.00578596862033
  w: 0.00611339602619
orientation_covariance: [2.1506892174164229e-07, 0.0, 0.0, 0.0, 2.1326035119553488e-07, 0.0, 0.0, 0.0, 1.6154234859004858e-06]
angular_velocity: 
  x: -6.28982234048e-05
  y: 0.000490370963234
  z: 4.50658371847e-05
angular_velocity_covariance: [0.01, 0.0, 0.0, 0.0, 0.01, 0.0, 0.0, 0.0, 0.01]
linear_acceleration: 
  x: 0.00829707551748
  y: 0.0346859693527
  z: 10.2153015137
linear_acceleration_covariance: [0.01, 0.0, 0.0, 0.0, 0.01, 0.0, 0.0, 0.0, 0.01]
---
header: 
  seq: 10809
  stamp: 
    secs: 1638974346
    nsecs: 933666240
  frame_id: "imu"
orientation: 
  x: 0.875751256943
  y: -0.482689291239
  z: 0.00577772408724
  w: 0.00612416956574
orientation_covariance: [2.15393728640334e-07, 0.0, 0.0, 0.0, 2.135489953818754e-07, 0.0, 0.0, 0.0, 1.614141856927581e-06]
angular_velocity: 
  x: -0.00212669605389
  y: 0.00010614497296
  z: 0.000583608867601
angular_velocity_covariance: [0.01, 0.0, 0.0, 0.0, 0.01, 0.0, 0.0, 0.0, 0.01]
linear_acceleration: 
  x: 0.0287506245077
  y: -0.00635854760185
  z: 10.17694664
linear_acceleration_covariance: [0.01, 0.0, 0.0, 0.0, 0.01, 0.0, 0.0, 0.0, 0.01]
---
header: 
  seq: 10810
  stamp: 
    secs: 1638974346
    nsecs: 958632846
  frame_id: "imu"
orientation: 
  x: 0.875789821148
  y: -0.482619047165
  z: 0.00578143494204
  w: 0.00613359455019
orientation_covariance: [2.155316526019356e-07, 0.0, 0.0, 0.0, 2.1367087922995602e-07, 0.0, 0.0, 0.0, 1.614222150356434e-06]
angular_velocity: 
  x: -0.000648345216177
  y: 0.000623535714112
  z: -2.71117078228e-05
angular_velocity_covariance: [0.01, 0.0, 0.0, 0.0, 0.01, 0.0, 0.0, 0.0, 0.01]
linear_acceleration: 
  x: -0.0075495429337
  y: -0.0454103313386
  z: 10.2034320831
linear_acceleration_covariance: [0.01, 0.0, 0.0, 0.0, 0.01, 0.0, 0.0, 0.0, 0.01]
---
header: 
  seq: 10811
  stamp: 
    secs: 1638974346
    nsecs: 983360960
  frame_id: "imu"
orientation: 
  x: 0.875831127167
  y: -0.48254442215
  z: 0.00577472569421
  w: 0.00612681824714
orientation_covariance: [2.154296691219931e-07, 0.0, 0.0, 0.0, 2.1353316144825427e-07, 0.0, 0.0, 0.0, 1.6124115729288011e-06]
angular_velocity: 
  x: 0.00154395995196
  y: 0.000757708156016
  z: 3.40253354807e-05
angular_velocity_covariance: [0.01, 0.0, 0.0, 0.0, 0.01, 0.0, 0.0, 0.0, 0.01]
linear_acceleration: 
  x: -0.00598884094507
  y: -0.0277555081993
  z: 10.235001564
linear_acceleration_covariance: [0.01, 0.0, 0.0, 0.0, 0.01, 0.0, 0.0, 0.0, 0.01]
---
header: 
  seq: 10812
  stamp: 
    secs: 1638974347
    nsecs:   8625444
  frame_id: "imu"
orientation: 
  x: 0.87584155798
  y: -0.482525259256
  z: 0.00578070338815
  w: 0.00612866086885
orientation_covariance: [2.1554958294072492e-07, 0.0, 0.0, 0.0, 2.136284443195091e-07, 0.0, 0.0, 0.0, 1.611680494762619e-06]
angular_velocity: 
  x: -0.000972059904598
  y: -0.000514049141202
  z: -0.00169736158568
angular_velocity_covariance: [0.01, 0.0, 0.0, 0.0, 0.01, 0.0, 0.0, 0.0, 0.01]
linear_acceleration: 
  x: -0.0131169613451
  y: -0.00732395332307
  z: 10.2081699371
linear_acceleration_covariance: [0.01, 0.0, 0.0, 0.0, 0.01, 0.0, 0.0, 0.0, 0.01]
---
header: 
  seq: 10813
  stamp: 
    secs: 1638974347
    nsecs:  33684377
  frame_id: "imu"
orientation: 
  x: 0.875853359699
  y: -0.482503831387
  z: 0.00578196998686
  w: 0.00613284669816
orientation_covariance: [2.1612009016192603e-07, 0.0, 0.0, 0.0, 2.1415081897172842e-07, 0.0, 0.0, 0.0, 1.609727473838883e-06]
angular_velocity: 
  x: -0.000952067202888
  y: 0.000383059028536
  z: 0.000104284306872
angular_velocity_covariance: [0.01, 0.0, 0.0, 0.0, 0.01, 0.0, 0.0, 0.0, 0.01]
linear_acceleration: 
  x: -0.000180457529495
  y: -0.0323056951165
  z: 10.2232847214
linear_acceleration_covariance: [0.01, 0.0, 0.0, 0.0, 0.01, 0.0, 0.0, 0.0, 0.01]
---
header: 
  seq: 10814
  stamp: 
    secs: 1638974347
    nsecs:  58607112
  frame_id: "imu"
orientation: 
  x: 0.875898003578
  y: -0.482422798872
  z: 0.00578088779002
  w: 0.00612642336637
orientation_covariance: [2.1653308792578562e-07, 0.0, 0.0, 0.0, 2.1454018769740336e-07, 0.0, 0.0, 0.0, 1.6094674684567542e-06]
angular_velocity: 
  x: 0.000165216479218
  y: -0.000777986831963
  z: -0.000567697104998
angular_velocity_covariance: [0.01, 0.0, 0.0, 0.0, 0.01, 0.0, 0.0, 0.0, 0.01]
linear_acceleration: 
  x: 0.00142703729216
  y: -0.033150985837
  z: 10.220164299
linear_acceleration_covariance: [0.01, 0.0, 0.0, 0.0, 0.01, 0.0, 0.0, 0.0, 0.01]
---
header: 
  seq: 10815
  stamp: 
    secs: 1638974347
    nsecs:  83726058
  frame_id: "imu"
orientation: 
  x: 0.875931680202
  y: -0.48236194253
  z: 0.00577247329056
  w: 0.00611116318032
orientation_covariance: [2.1675001129878867e-07, 0.0, 0.0, 0.0, 2.147052530360044e-07, 0.0, 0.0, 0.0, 1.6067314272377511e-06]
angular_velocity: 
  x: 0.00140240450855
  y: -0.00155911734328
  z: -0.000490001461003
angular_velocity_covariance: [0.01, 0.0, 0.0, 0.0, 0.01, 0.0, 0.0, 0.0, 0.01]
linear_acceleration: 
  x: 0.00592924375087
  y: -0.0267228074372
  z: 10.2031030655
linear_acceleration_covariance: [0.01, 0.0, 0.0, 0.0, 0.01, 0.0, 0.0, 0.0, 0.01]
---
header: 
  seq: 10816
  stamp: 
    secs: 1638974347
    nsecs: 108662888
  frame_id: "imu"
orientation: 
  x: 0.875922560692
  y: -0.482378602028
  z: 0.00577629357576
  w: 0.00611016945913
orientation_covariance: [2.1678621611669285e-07, 0.0, 0.0, 0.0, 2.1470474087384678e-07, 0.0, 0.0, 0.0, 1.6047853616957925e-06]
angular_velocity: 
  x: -0.000963515951298
  y: -0.0010638931999
  z: -0.000572479213588
angular_velocity_covariance: [0.01, 0.0, 0.0, 0.0, 0.01, 0.0, 0.0, 0.0, 0.01]
linear_acceleration: 
  x: -0.00156883825548
  y: -0.0187251567841
  z: 10.2384986877
linear_acceleration_covariance: [0.01, 0.0, 0.0, 0.0, 0.01, 0.0, 0.0, 0.0, 0.01]
---
header: 
  seq: 10817
  stamp: 
    secs: 1638974347
    nsecs: 133656613
  frame_id: "imu"
orientation: 
  x: 0.875906765461
  y: -0.482407093048
  z: 0.00577592710033
  w: 0.00612019235268
orientation_covariance: [2.1666181255208468e-07, 0.0, 0.0, 0.0, 2.145360618772181e-07, 0.0, 0.0, 0.0, 1.6019525767010837e-06]
angular_velocity: 
  x: -0.000755337008741
  y: -0.0011502825655
  z: -0.000199871210498
angular_velocity_covariance: [0.01, 0.0, 0.0, 0.0, 0.01, 0.0, 0.0, 0.0, 0.01]
linear_acceleration: 
  x: 0.0234013646841
  y: 0.0247453227639
  z: 10.2193927765
linear_acceleration_covariance: [0.01, 0.0, 0.0, 0.0, 0.01, 0.0, 0.0, 0.0, 0.01]
---
header: 
  seq: 10818
  stamp: 
    secs: 1638974347
    nsecs: 158682061
  frame_id: "imu"
orientation: 
  x: 0.87593793869
  y: -0.48235052824
  z: 0.00577857438475
  w: 0.00611380906776
orientation_covariance: [2.1635688740964766e-07, 0.0, 0.0, 0.0, 2.1422282627726536e-07, 0.0, 0.0, 0.0, 1.6015928123851976e-06]
angular_velocity: 
  x: 0.000184564152732
  y: -0.000446224672487
  z: -0.000521849840879
angular_velocity_covariance: [0.01, 0.0, 0.0, 0.0, 0.01, 0.0, 0.0, 0.0, 0.01]
linear_acceleration: 
  x: -0.0121448338032
  y: -1.95794273168e-05
  z: 10.2828187943
linear_acceleration_covariance: [0.01, 0.0, 0.0, 0.0, 0.01, 0.0, 0.0, 0.0, 0.01]
---
header: 
  seq: 10819
  stamp: 
    secs: 1638974347
    nsecs: 183702487
  frame_id: "imu"
orientation: 
  x: 0.875959813595
  y: -0.48231074214
  z: 0.00578610086814
  w: 0.00610564090312
orientation_covariance: [2.1594161046907282e-07, 0.0, 0.0, 0.0, 2.137728063446968e-07, 0.0, 0.0, 0.0, 1.5989917311952413e-06]
angular_velocity: 
  x: 0.00185872567818
  y: -0.000972990412265
  z: -0.000168106285855
angular_velocity_covariance: [0.01, 0.0, 0.0, 0.0, 0.01, 0.0, 0.0, 0.0, 0.01]
linear_acceleration: 
  x: 0.0103592993692
  y: -0.0273272395134
  z: 10.2208967209
linear_acceleration_covariance: [0.01, 0.0, 0.0, 0.0, 0.01, 0.0, 0.0, 0.0, 0.01]
---
header: 
  seq: 10820
  stamp: 
    secs: 1638974347
    nsecs: 208725464
  frame_id: "imu"
orientation: 
  x: 0.875938892365
  y: -0.482348531485
  z: 0.00579093489796
  w: 0.00610855128616
orientation_covariance: [2.160001083883998e-07, 0.0, 0.0, 0.0, 2.1380368083821706e-07, 0.0, 0.0, 0.0, 1.5975194028575449e-06]
angular_velocity: 
  x: -0.000609002658166
  y: 0.00123456504662
  z: 0.000851592572872
angular_velocity_covariance: [0.01, 0.0, 0.0, 0.0, 0.01, 0.0, 0.0, 0.0, 0.01]
linear_acceleration: 
  x: 0.0186379030347
  y: 0.0204604882747
  z: 10.2118940353
linear_acceleration_covariance: [0.01, 0.0, 0.0, 0.0, 0.01, 0.0, 0.0, 0.0, 0.01]
---
header: 
  seq: 10821
  stamp: 
    secs: 1638974347
    nsecs: 233748161
  frame_id: "imu"
orientation: 
  x: 0.875911653042
  y: -0.482397764921
  z: 0.00579664669931
  w: 0.00612474326044
orientation_covariance: [2.1608152311760407e-07, 0.0, 0.0, 0.0, 2.1384240487325145e-07, 0.0, 0.0, 0.0, 1.5948960139744786e-06]
angular_velocity: 
  x: -0.00176527607255
  y: 0.00149202928878
  z: 0.000971410539933
angular_velocity_covariance: [0.01, 0.0, 0.0, 0.0, 0.01, 0.0, 0.0, 0.0, 0.01]
linear_acceleration: 
  x: 0.0324769131839
  y: -0.00368522270583
  z: 10.1839666367
linear_acceleration_covariance: [0.01, 0.0, 0.0, 0.0, 0.01, 0.0, 0.0, 0.0, 0.01]
---
header: 
  seq: 10822
  stamp: 
    secs: 1638974347
    nsecs: 258646816
  frame_id: "imu"
orientation: 
  x: 0.875931024551
  y: -0.482362657785
  z: 0.00579857919365
  w: 0.00612695049495
orientation_covariance: [2.159772340335168e-07, 0.0, 0.0, 0.0, 2.1372970002211655e-07, 0.0, 0.0, 0.0, 1.5945941865975282e-06]
angular_velocity: 
  x: -0.000520268338732
  y: 0.00174540956505
  z: -0.000171920473804
angular_velocity_covariance: [0.01, 0.0, 0.0, 0.0, 0.01, 0.0, 0.0, 0.0, 0.01]
linear_acceleration: 
  x: 0.00201442535035
  y: -0.0485476888716
  z: 10.2303609848
linear_acceleration_covariance: [0.01, 0.0, 0.0, 0.0, 0.01, 0.0, 0.0, 0.0, 0.01]
---
header: 
  seq: 10823
  stamp: 
    secs: 1638974347
    nsecs: 283824832
  frame_id: "imu"
orientation: 
  x: 0.875947237015
  y: -0.482333540916
  z: 0.00579546531662
  w: 0.00610570563003
orientation_covariance: [2.156270481589978e-07, 0.0, 0.0, 0.0, 2.1335145877365695e-07, 0.0, 0.0, 0.0, 1.5923778297325187e-06]
angular_velocity: 
  x: 0.000540365756024
  y: -0.000126562503283
  z: 0.000225566909648
angular_velocity_covariance: [0.01, 0.0, 0.0, 0.0, 0.01, 0.0, 0.0, 0.0, 0.01]
linear_acceleration: 
  x: 0.0199341028929
  y: 0.00416354322806
  z: 10.2216053009
linear_acceleration_covariance: [0.01, 0.0, 0.0, 0.0, 0.01, 0.0, 0.0, 0.0, 0.01]
---
header: 
  seq: 10824
  stamp: 
    secs: 1638974347
    nsecs: 308699284
  frame_id: "imu"
orientation: 
  x: 0.875915646553
  y: -0.482390761375
  z: 0.00579746998847
  w: 0.00610927585512
orientation_covariance: [2.1505598642453762e-07, 0.0, 0.0, 0.0, 2.1276782475549742e-07, 0.0, 0.0, 0.0, 1.5908511446497068e-06]
angular_velocity: 
  x: -0.00140690384433
  y: -0.000155617075507
  z: 0.000260548084043
angular_velocity_covariance: [0.01, 0.0, 0.0, 0.0, 0.01, 0.0, 0.0, 0.0, 0.01]
linear_acceleration: 
  x: -0.0079779792577
  y: 0.0299762170762
  z: 10.1945772171
linear_acceleration_covariance: [0.01, 0.0, 0.0, 0.0, 0.01, 0.0, 0.0, 0.0, 0.01]
---
header: 
  seq: 10825
  stamp: 
    secs: 1638974347
    nsecs: 333704093
  frame_id: "imu"
orientation: 
  x: 0.875892400742
  y: -0.482432931662
  z: 0.00580101599917
  w: 0.00611816765741
orientation_covariance: [2.1425797673769995e-07, 0.0, 0.0, 0.0, 2.119555164494628e-07, 0.0, 0.0, 0.0, 1.5887570409873153e-06]
angular_velocity: 
  x: -0.00228687562048
  y: 0.000502783921547
  z: 0.000425559672294
angular_velocity_covariance: [0.01, 0.0, 0.0, 0.0, 0.01, 0.0, 0.0, 0.0, 0.01]
linear_acceleration: 
  x: -0.00938466656953
  y: -0.00018548197113
  z: 10.2156591415
linear_acceleration_covariance: [0.01, 0.0, 0.0, 0.0, 0.01, 0.0, 0.0, 0.0, 0.01]
---
header: 
  seq: 10826
  stamp: 
    secs: 1638974347
    nsecs: 358621909
  frame_id: "imu"
orientation: 
  x: 0.875914633274
  y: -0.48239248991
  z: 0.00580648845062
  w: 0.00611760048196
orientation_covariance: [2.1373378802235203e-07, 0.0, 0.0, 0.0, 2.114362463739769e-07, 0.0, 0.0, 0.0, 1.588585599393004e-06]
angular_velocity: 
  x: 0.00145703915041
  y: 0.00130721135065
  z: -0.000765615899581
angular_velocity_covariance: [0.01, 0.0, 0.0, 0.0, 0.01, 0.0, 0.0, 0.0, 0.01]
linear_acceleration: 
  x: -0.000934587442316
  y: -0.0174209959805
  z: 10.2670707703
linear_acceleration_covariance: [0.01, 0.0, 0.0, 0.0, 0.01, 0.0, 0.0, 0.0, 0.01]
---
header: 
  seq: 10827
  stamp: 
    secs: 1638974347
    nsecs: 383702697
  frame_id: "imu"
orientation: 
  x: 0.875929951668
  y: -0.482365012169
  z: 0.0057999426499
  w: 0.0060993488878
orientation_covariance: [2.12995697118809e-07, 0.0, 0.0, 0.0, 2.1068978104157856e-07, 0.0, 0.0, 0.0, 1.586987998921365e-06]
angular_velocity: 
  x: 0.00146567996126
  y: -0.000236057210714
  z: -0.000511746038683
angular_velocity_covariance: [0.01, 0.0, 0.0, 0.0, 0.01, 0.0, 0.0, 0.0, 0.01]
linear_acceleration: 
  x: 0.0100644351915
  y: 0.0240848064423
  z: 10.233704567
linear_acceleration_covariance: [0.01, 0.0, 0.0, 0.0, 0.01, 0.0, 0.0, 0.0, 0.01]
---
header: 
  seq: 10828
  stamp: 
    secs: 1638974347
    nsecs: 408719078
  frame_id: "imu"
orientation: 
  x: 0.875909566879
  y: -0.482402026653
  z: 0.00579480687156
  w: 0.00609657960013
orientation_covariance: [2.122580141558087e-07, 0.0, 0.0, 0.0, 2.0994901506823753e-07, 0.0, 0.0, 0.0, 1.5856865899282597e-06]
angular_velocity: 
  x: -0.000277960585663
  y: 0.000803356291726
  z: -2.18381646846e-05
angular_velocity_covariance: [0.01, 0.0, 0.0, 0.0, 0.01, 0.0, 0.0, 0.0, 0.01]
linear_acceleration: 
  x: 0.0497793518007
  y: 0.00958175677806
  z: 10.2061834335
linear_acceleration_covariance: [0.01, 0.0, 0.0, 0.0, 0.01, 0.0, 0.0, 0.0, 0.01]
---
header: 
  seq: 10829
  stamp: 
    secs: 1638974347
    nsecs: 433735121
  frame_id: "imu"
orientation: 
  x: 0.875883340836
  y: -0.482449531555
  z: 0.00579553144053
  w: 0.00610762089491
orientation_covariance: [2.1105738242905858e-07, 0.0, 0.0, 0.0, 2.0874091950628467e-07, 0.0, 0.0, 0.0, 1.5831701264571483e-06]
angular_velocity: 
  x: -0.00246975617483
  y: -0.00148737698328
  z: 0.000339419202646
angular_velocity_covariance: [0.01, 0.0, 0.0, 0.0, 0.01, 0.0, 0.0, 0.0, 0.01]
linear_acceleration: 
  x: 0.0101325009018
  y: -0.011799137108
  z: 10.227935791
linear_acceleration_covariance: [0.01, 0.0, 0.0, 0.0, 0.01, 0.0, 0.0, 0.0, 0.01]
---
header: 
  seq: 10830
  stamp: 
    secs: 1638974347
    nsecs: 458690244
  frame_id: "imu"
orientation: 
  x: 0.875902056694
  y: -0.482415676117
  z: 0.00578703777865
  w: 0.00610750168562
orientation_covariance: [2.0970113246014592e-07, 0.0, 0.0, 0.0, 2.074082824566829e-07, 0.0, 0.0, 0.0, 1.5828069151658305e-06]
angular_velocity: 
  x: -0.000404057267588
  y: 0.000241579560679
  z: -0.000173939697561
angular_velocity_covariance: [0.01, 0.0, 0.0, 0.0, 0.01, 0.0, 0.0, 0.0, 0.01]
linear_acceleration: 
  x: 0.0372081622481
  y: -0.0124551802874
  z: 10.2321233749
linear_acceleration_covariance: [0.01, 0.0, 0.0, 0.0, 0.01, 0.0, 0.0, 0.0, 0.01]
---
header: 
  seq: 10831
  stamp: 
    secs: 1638974347
    nsecs: 483790559
  frame_id: "imu"
orientation: 
  x: 0.875912189484
  y: -0.482397913933
  z: 0.00577366352081
  w: 0.00607421435416
orientation_covariance: [2.0824079548438626e-07, 0.0, 0.0, 0.0, 2.0595186354615908e-07, 0.0, 0.0, 0.0, 1.5806219830018812e-06]
angular_velocity: 
  x: 0.00234597572125
  y: 0.000558513100259
  z: 0.000167736128788
angular_velocity_covariance: [0.01, 0.0, 0.0, 0.0, 0.01, 0.0, 0.0, 0.0, 0.01]
linear_acceleration: 
  x: 0.0154616329819
  y: 0.00514491228387
  z: 10.2236452103
linear_acceleration_covariance: [0.01, 0.0, 0.0, 0.0, 0.01, 0.0, 0.0, 0.0, 0.01]
---
header: 
  seq: 10832
  stamp: 
    secs: 1638974347
    nsecs: 508664761
  frame_id: "imu"
orientation: 
  x: 0.875883638859
  y: -0.482449442148
  z: 0.0057861469686
  w: 0.0060820360668
orientation_covariance: [2.070003276185218e-07, 0.0, 0.0, 0.0, 2.0472130169083658e-07, 0.0, 0.0, 0.0, 1.5791483337242781e-06]
angular_velocity: 
  x: 0.000492959981784
  y: -0.000409124535508
  z: -0.000667996122502
angular_velocity_covariance: [0.01, 0.0, 0.0, 0.0, 0.01, 0.0, 0.0, 0.0, 0.01]
linear_acceleration: 
  x: 9.99279436655e-05
  y: 0.0179669335485
  z: 10.2099609375
linear_acceleration_covariance: [0.01, 0.0, 0.0, 0.0, 0.01, 0.0, 0.0, 0.0, 0.01]
---
header: 
  seq: 10833
  stamp: 
    secs: 1638974347
    nsecs: 533725734
  frame_id: "imu"
orientation: 
  x: 0.875848174095
  y: -0.48251375556
  z: 0.00577921094373
  w: 0.00608801515773
orientation_covariance: [2.062495754352187e-07, 0.0, 0.0, 0.0, 2.0396547710155578e-07, 0.0, 0.0, 0.0, 1.5772441997167924e-06]
angular_velocity: 
  x: -0.00163498928305
  y: -0.000137105511385
  z: -0.000976318027824
angular_velocity_covariance: [0.01, 0.0, 0.0, 0.0, 0.01, 0.0, 0.0, 0.0, 0.01]
linear_acceleration: 
  x: 0.018821367994
  y: 0.00150615035091
  z: 10.2246179581
linear_acceleration_covariance: [0.01, 0.0, 0.0, 0.0, 0.01, 0.0, 0.0, 0.0, 0.01]
---
header: 
  seq: 10834
  stamp: 
    secs: 1638974347
    nsecs: 558677192
  frame_id: "imu"
orientation: 
  x: 0.875869870186
  y: -0.482474207878
  z: 0.00578665686771
  w: 0.00609148154035
orientation_covariance: [2.0534161650296964e-07, 0.0, 0.0, 0.0, 2.030794711552388e-07, 0.0, 0.0, 0.0, 1.5773039723177302e-06]
angular_velocity: 
  x: 0.000148465769598
  y: 0.000651378009934
  z: -7.28116137907e-05
angular_velocity_covariance: [0.01, 0.0, 0.0, 0.0, 0.01, 0.0, 0.0, 0.0, 0.01]
linear_acceleration: 
  x: -0.0190127007663
  y: -0.0138002000749
  z: 10.216919899
linear_acceleration_covariance: [0.01, 0.0, 0.0, 0.0, 0.01, 0.0, 0.0, 0.0, 0.01]
---
header: 
  seq: 10835
  stamp: 
    secs: 1638974347
    nsecs: 583635434
  frame_id: "imu"
orientation: 
  x: 0.875881493092
  y: -0.482453107834
  z: 0.00579656288028
  w: 0.00609284220263
orientation_covariance: [2.043086226677282e-07, 0.0, 0.0, 0.0, 2.020496768311082e-07, 0.0, 0.0, 0.0, 1.5755511133382366e-06]
angular_velocity: 
  x: 0.000954141141847
  y: -0.000967765110545
  z: -1.7283437046e-05
angular_velocity_covariance: [0.01, 0.0, 0.0, 0.0, 0.01, 0.0, 0.0, 0.0, 0.01]
linear_acceleration: 
  x: -0.000721180462278
  y: -0.0200965926051
  z: 10.206120491
linear_acceleration_covariance: [0.01, 0.0, 0.0, 0.0, 0.01, 0.0, 0.0, 0.0, 0.01]
---
header: 
  seq: 10836
  stamp: 
    secs: 1638974347
    nsecs: 608660284
  frame_id: "imu"
orientation: 
  x: 0.875854790211
  y: -0.482501536608
  z: 0.00579826487228
  w: 0.00609410088509
orientation_covariance: [2.0329849052830726e-07, 0.0, 0.0, 0.0, 2.0105293537866152e-07, 0.0, 0.0, 0.0, 1.5745650688988987e-06]
angular_velocity: 
  x: -0.00081265962217
  y: 0.00132167595439
  z: -0.000147809652844
angular_velocity_covariance: [0.01, 0.0, 0.0, 0.0, 0.01, 0.0, 0.0, 0.0, 0.01]
linear_acceleration: 
  x: 0.014655822888
  y: 0.017333265394
  z: 10.1845541
linear_acceleration_covariance: [0.01, 0.0, 0.0, 0.0, 0.01, 0.0, 0.0, 0.0, 0.01]
---
header: 
  seq: 10837
  stamp: 
    secs: 1638974347
    nsecs: 633575425
  frame_id: "imu"
orientation: 
  x: 0.875824511051
  y: -0.482556313276
  z: 0.00578953837976
  w: 0.00610425882041
orientation_covariance: [2.0188595779142533e-07, 0.0, 0.0, 0.0, 1.9964986597345887e-07, 0.0, 0.0, 0.0, 1.5724451890618665e-06]
angular_velocity: 
  x: -0.00161595188547
  y: 5.59236868867e-05
  z: 0.00035248947097
angular_velocity_covariance: [0.01, 0.0, 0.0, 0.0, 0.01, 0.0, 0.0, 0.0, 0.01]
linear_acceleration: 
  x: -0.0101776458323
  y: -0.0187313761562
  z: 10.2087545395
linear_acceleration_covariance: [0.01, 0.0, 0.0, 0.0, 0.01, 0.0, 0.0, 0.0, 0.01]
---
header: 
  seq: 10838
  stamp: 
    secs: 1638974347
    nsecs: 658552174
  frame_id: "imu"
orientation: 
  x: 0.875843346119
  y: -0.482522189617
  z: 0.00578992674127
  w: 0.00610971543938
orientation_covariance: [2.0065218534814978e-07, 0.0, 0.0, 0.0, 1.984450835306307e-07, 0.0, 0.0, 0.0, 1.572324524808312e-06]
angular_velocity: 
  x: -0.000429889041698
  y: -3.7355493987e-06
  z: -0.00132248201407
angular_velocity_covariance: [0.01, 0.0, 0.0, 0.0, 0.01, 0.0, 0.0, 0.0, 0.01]
linear_acceleration: 
  x: -0.00551872095093
  y: -0.0144510855898
  z: 10.2317218781
linear_acceleration_covariance: [0.01, 0.0, 0.0, 0.0, 0.01, 0.0, 0.0, 0.0, 0.01]
---
header: 
  seq: 10839
  stamp: 
    secs: 1638974347
    nsecs: 683689919
  frame_id: "imu"
orientation: 
  x: 0.875849962234
  y: -0.482510447502
  z: 0.00578726269305
  w: 0.00609410880134
orientation_covariance: [1.9898757186624732e-07, 0.0, 0.0, 0.0, 1.9679390948424426e-07, 0.0, 0.0, 0.0, 1.5700034549984715e-06]
angular_velocity: 
  x: 0.00200046040118
  y: -0.000461344898213
  z: 0.000684400671162
angular_velocity_covariance: [0.01, 0.0, 0.0, 0.0, 0.01, 0.0, 0.0, 0.0, 0.01]
linear_acceleration: 
  x: 0.0238587893546
  y: -0.0269969198853
  z: 10.2118091583
linear_acceleration_covariance: [0.01, 0.0, 0.0, 0.0, 0.01, 0.0, 0.0, 0.0, 0.01]
---
header: 
  seq: 10840
  stamp: 
    secs: 1638974347
    nsecs: 708636284
  frame_id: "imu"
orientation: 
  x: 0.875813305378
  y: -0.482576817274
  z: 0.00578850274906
  w: 0.00610171956941
orientation_covariance: [1.9812744733494422e-07, 0.0, 0.0, 0.0, 1.95939494053233e-07, 0.0, 0.0, 0.0, 1.5683758177840875e-06]
angular_velocity: 
  x: -0.000359094177838
  y: 0.000807167671155
  z: 0.000808415352367
angular_velocity_covariance: [0.01, 0.0, 0.0, 0.0, 0.01, 0.0, 0.0, 0.0, 0.01]
linear_acceleration: 
  x: 0.00787277705967
  y: 0.00884885713458
  z: 10.2105560303
linear_acceleration_covariance: [0.01, 0.0, 0.0, 0.0, 0.01, 0.0, 0.0, 0.0, 0.01]
---
header: 
  seq: 10841
  stamp: 
    secs: 1638974347
    nsecs: 733715754
  frame_id: "imu"
orientation: 
  x: 0.875786304474
  y: -0.482625573874
  z: 0.00579700618982
  w: 0.00611639488488
orientation_covariance: [1.983434910297413e-07, 0.0, 0.0, 0.0, 1.9613467449051097e-07, 0.0, 0.0, 0.0, 1.5664856782509901e-06]
angular_velocity: 
  x: -0.00154909980483
  y: 0.00134690280538
  z: -0.000302558357362
angular_velocity_covariance: [0.01, 0.0, 0.0, 0.0, 0.01, 0.0, 0.0, 0.0, 0.01]
linear_acceleration: 
  x: -0.0172853991389
  y: -0.0548563674092
  z: 10.2484588623
linear_acceleration_covariance: [0.01, 0.0, 0.0, 0.0, 0.01, 0.0, 0.0, 0.0, 0.01]
---
header: 
  seq: 10842
  stamp: 
    secs: 1638974347
    nsecs: 758629378
  frame_id: "imu"
orientation: 
  x: 0.875813782215
  y: -0.482575684786
  z: 0.00578855071217
  w: 0.00611551990733
orientation_covariance: [1.9918690483506497e-07, 0.0, 0.0, 0.0, 1.969603987412119e-07, 0.0, 0.0, 0.0, 1.5661500982284267e-06]
angular_velocity: 
  x: 0.000419469259214
  y: 0.00330632925034
  z: -0.000585672736634
angular_velocity_covariance: [0.01, 0.0, 0.0, 0.0, 0.01, 0.0, 0.0, 0.0, 0.01]
linear_acceleration: 
  x: 0.0576828047633
  y: -0.0423842296004
  z: 10.207151413
linear_acceleration_covariance: [0.01, 0.0, 0.0, 0.0, 0.01, 0.0, 0.0, 0.0, 0.01]
---
header: 
  seq: 10843
  stamp: 
    secs: 1638974347
    nsecs: 783701199
  frame_id: "imu"
orientation: 
  x: 0.875835001469
  y: -0.482537418604
  z: 0.00578535860404
  w: 0.00610643811524
orientation_covariance: [1.9999456814888095e-07, 0.0, 0.0, 0.0, 1.977345111763766e-07, 0.0, 0.0, 0.0, 1.5644063772434338e-06]
angular_velocity: 
  x: 0.000282012479147
  y: 8.19945853436e-06
  z: -0.000163989927387
angular_velocity_covariance: [0.01, 0.0, 0.0, 0.0, 0.01, 0.0, 0.0, 0.0, 0.01]
linear_acceleration: 
  x: 0.0207326542586
  y: -0.0236746687442
  z: 10.2251291275
linear_acceleration_covariance: [0.01, 0.0, 0.0, 0.0, 0.01, 0.0, 0.0, 0.0, 0.01]
---
header: 
  seq: 10844
  stamp: 
    secs: 1638974347
    nsecs: 808704666
  frame_id: "imu"
orientation: 
  x: 0.875809848309
  y: -0.482583224773
  z: 0.00578261166811
  w: 0.00610402598977
orientation_covariance: [2.0066234994979194e-07, 0.0, 0.0, 0.0, 1.9837844309697735e-07, 0.0, 0.0, 0.0, 1.5631734414535745e-06]
angular_velocity: 
  x: 3.65413870895e-06
  y: -0.00130208441988
  z: -0.000420038646553
angular_velocity_covariance: [0.01, 0.0, 0.0, 0.0, 0.01, 0.0, 0.0, 0.0, 0.01]
linear_acceleration: 
  x: 0.010202803649
  y: 0.0202062502503
  z: 10.2452297211
linear_acceleration_covariance: [0.01, 0.0, 0.0, 0.0, 0.01, 0.0, 0.0, 0.0, 0.01]
---
header: 
  seq: 10845
  stamp: 
    secs: 1638974347
    nsecs: 833679416
  frame_id: "imu"
orientation: 
  x: 0.875782728195
  y: -0.482632249594
  z: 0.00578406406567
  w: 0.00611140951514
orientation_covariance: [2.011691877175708e-07, 0.0, 0.0, 0.0, 1.9884504517612018e-07, 0.0, 0.0, 0.0, 1.5602600394552278e-06]
angular_velocity: 
  x: -0.000830990727991
  y: -0.00111158995423
  z: -0.000429909938248
angular_velocity_covariance: [0.01, 0.0, 0.0, 0.0, 0.01, 0.0, 0.0, 0.0, 0.01]
linear_acceleration: 
  x: 0.0270845871419
  y: 0.0058194193989
  z: 10.2185935974
linear_acceleration_covariance: [0.01, 0.0, 0.0, 0.0, 0.01, 0.0, 0.0, 0.0, 0.01]
---
header: 
  seq: 10846
  stamp: 
    secs: 1638974347
    nsecs: 858612434
  frame_id: "imu"
orientation: 
  x: 0.875810265541
  y: -0.482582271099
  z: 0.00578036345541
  w: 0.00610892893746
orientation_covariance: [2.0151721233954308e-07, 0.0, 0.0, 0.0, 1.9918333563373215e-07, 0.0, 0.0, 0.0, 1.5596759961996667e-06]
angular_velocity: 
  x: 0.000352454459062
  y: 0.00117603701074
  z: -0.000399154552724
angular_velocity_covariance: [0.01, 0.0, 0.0, 0.0, 0.01, 0.0, 0.0, 0.0, 0.01]
linear_acceleration: 
  x: 0.0175714287907
  y: -0.0144979385659
  z: 10.206653595
linear_acceleration_covariance: [0.01, 0.0, 0.0, 0.0, 0.01, 0.0, 0.0, 0.0, 0.01]
---
header: 
  seq: 10847
  stamp: 
    secs: 1638974347
    nsecs: 883782100
  frame_id: "imu"
orientation: 
  x: 0.875825464725
  y: -0.48255482316
  z: 0.00578404823318
  w: 0.00609810138121
orientation_covariance: [2.016844901296384e-07, 0.0, 0.0, 0.0, 1.9932429985981715e-07, 0.0, 0.0, 0.0, 1.5573396182671991e-06]
angular_velocity: 
  x: 0.00196995143779
  y: -0.00134331698064
  z: 0.000380569719709
angular_velocity_covariance: [0.01, 0.0, 0.0, 0.0, 0.01, 0.0, 0.0, 0.0, 0.01]
linear_acceleration: 
  x: 0.0289857443422
  y: -0.00197118101642
  z: 10.2093276978
linear_acceleration_covariance: [0.01, 0.0, 0.0, 0.0, 0.01, 0.0, 0.0, 0.0, 0.01]
---
header: 
  seq: 10848
  stamp: 
    secs: 1638974347
    nsecs: 908646615
  frame_id: "imu"
orientation: 
  x: 0.875809192657
  y: -0.482584357262
  z: 0.00578427640721
  w: 0.00610284693539
orientation_covariance: [2.016655109743635e-07, 0.0, 0.0, 0.0, 1.9929811743363994e-07, 0.0, 0.0, 0.0, 1.5561604064181994e-06]
angular_velocity: 
  x: -0.000153035813128
  y: -0.000111397421279
  z: 7.17211296433e-05
angular_velocity_covariance: [0.01, 0.0, 0.0, 0.0, 0.01, 0.0, 0.0, 0.0, 0.01]
linear_acceleration: 
  x: 0.0219984464347
  y: 0.0412908606231
  z: 10.2139406204
linear_acceleration_covariance: [0.01, 0.0, 0.0, 0.0, 0.01, 0.0, 0.0, 0.0, 0.01]
---
header: 
  seq: 10849
  stamp: 
    secs: 1638974347
    nsecs: 933717911
  frame_id: "imu"
orientation: 
  x: 0.875777184963
  y: -0.482642322779
  z: 0.00578407896683
  w: 0.00611786497757
orientation_covariance: [2.0150361129850777e-07, 0.0, 0.0, 0.0, 1.991197047533272e-07, 0.0, 0.0, 0.0, 1.5539009043681406e-06]
angular_velocity: 
  x: -0.0022911101114
  y: 0.000461973599158
  z: -0.000334910873789
angular_velocity_covariance: [0.01, 0.0, 0.0, 0.0, 0.01, 0.0, 0.0, 0.0, 0.01]
linear_acceleration: 
  x: -0.02346675843
  y: 0.0174067374319
  z: 10.2356462479
linear_acceleration_covariance: [0.01, 0.0, 0.0, 0.0, 0.01, 0.0, 0.0, 0.0, 0.01]
---
header: 
  seq: 10850
  stamp: 
    secs: 1638974347
    nsecs: 958632803
  frame_id: "imu"
orientation: 
  x: 0.875805020332
  y: -0.482591599226
  z: 0.00579163944349
  w: 0.00612045777962
orientation_covariance: [2.0160419980680692e-07, 0.0, 0.0, 0.0, 1.9922767724926733e-07, 0.0, 0.0, 0.0, 1.5541913985546946e-06]
angular_velocity: 
  x: -0.00105731643271
  y: 0.000798871042207
  z: -0.000298569648294
angular_velocity_covariance: [0.01, 0.0, 0.0, 0.0, 0.01, 0.0, 0.0, 0.0, 0.01]
linear_acceleration: 
  x: 0.00677076121792
  y: -0.0263152141124
  z: 10.2136611938
linear_acceleration_covariance: [0.01, 0.0, 0.0, 0.0, 0.01, 0.0, 0.0, 0.0, 0.01]
---
header: 
  seq: 10851
  stamp: 
    secs: 1638974347
    nsecs: 983714046
  frame_id: "imu"
orientation: 
  x: 0.875826478004
  y: -0.482552886009
  z: 0.00577943213284
  w: 0.00611189380288
orientation_covariance: [2.0228866846494724e-07, 0.0, 0.0, 0.0, 1.9989327741072175e-07, 0.0, 0.0, 0.0, 1.553469103818192e-06]
angular_velocity: 
  x: 0.00108301371802
  y: 0.000340768543538
  z: -0.000561900902539
angular_velocity_covariance: [0.01, 0.0, 0.0, 0.0, 0.01, 0.0, 0.0, 0.0, 0.01]
linear_acceleration: 
  x: 0.0369369126856
  y: -0.0265601035208
  z: 10.2132978439
linear_acceleration_covariance: [0.01, 0.0, 0.0, 0.0, 0.01, 0.0, 0.0, 0.0, 0.01]
---
header: 
  seq: 10852
  stamp: 
    secs: 1638974348
    nsecs:   8603572
  frame_id: "imu"
orientation: 
  x: 0.875808596611
  y: -0.482585400343
  z: 0.00577665865421
  w: 0.00611320137978
orientation_covariance: [2.0309075188671107e-07, 0.0, 0.0, 0.0, 2.006774953925607e-07, 0.0, 0.0, 0.0, 1.5530156481771387e-06]
angular_velocity: 
  x: -0.000270297110546
  y: -0.00114260194823
  z: -0.000855841673911
angular_velocity_covariance: [0.01, 0.0, 0.0, 0.0, 0.01, 0.0, 0.0, 0.0, 0.01]
linear_acceleration: 
  x: 0.0180654451251
  y: 0.00913096033037
  z: 10.2272558212
linear_acceleration_covariance: [0.01, 0.0, 0.0, 0.0, 0.01, 0.0, 0.0, 0.0, 0.01]
---
header: 
  seq: 10853
  stamp: 
    secs: 1638974348
    nsecs:  33638922
  frame_id: "imu"
orientation: 
  x: 0.87579202652
  y: -0.482615202665
  z: 0.00578364217654
  w: 0.00612412439659
orientation_covariance: [2.0415071814794677e-07, 0.0, 0.0, 0.0, 2.0168814006957402e-07, 0.0, 0.0, 0.0, 1.5505372364343771e-06]
angular_velocity: 
  x: -0.000517894572113
  y: -0.000706035410985
  z: 0.00045809923904
angular_velocity_covariance: [0.01, 0.0, 0.0, 0.0, 0.01, 0.0, 0.0, 0.0, 0.01]
linear_acceleration: 
  x: -0.0292066279799
  y: -0.0226765088737
  z: 10.2125587463
linear_acceleration_covariance: [0.01, 0.0, 0.0, 0.0, 0.01, 0.0, 0.0, 0.0, 0.01]
---
header: 
  seq: 10854
  stamp: 
    secs: 1638974348
    nsecs:  58553718
  frame_id: "imu"
orientation: 
  x: 0.875818908215
  y: -0.482566446066
  z: 0.0057833683677
  w: 0.00612147850916
orientation_covariance: [2.0507476908090346e-07, 0.0, 0.0, 0.0, 2.0259314503512435e-07, 0.0, 0.0, 0.0, 1.550331601022276e-06]
angular_velocity: 
  x: -0.000978822354227
  y: 0.000521088135429
  z: -0.000586416921578
angular_velocity_covariance: [0.01, 0.0, 0.0, 0.0, 0.01, 0.0, 0.0, 0.0, 0.01]
linear_acceleration: 
  x: 0.0508361086249
  y: -0.0241503659636
  z: 10.1613321304
linear_acceleration_covariance: [0.01, 0.0, 0.0, 0.0, 0.01, 0.0, 0.0, 0.0, 0.01]
---
header: 
  seq: 10855
  stamp: 
    secs: 1638974348
    nsecs:  83279309
  frame_id: "imu"
orientation: 
  x: 0.875836074352
  y: -0.482535392046
  z: 0.00578403100371
  w: 0.00611525215209
orientation_covariance: [2.0581739405362896e-07, 0.0, 0.0, 0.0, 2.033019791460926e-07, 0.0, 0.0, 0.0, 1.5486235733598608e-06]
angular_velocity: 
  x: 0.000619842903689
  y: -0.000221236507059
  z: 0.000792781531345
angular_velocity_covariance: [0.01, 0.0, 0.0, 0.0, 0.01, 0.0, 0.0, 0.0, 0.01]
linear_acceleration: 
  x: -0.00595825910568
  y: -0.0167597159743
  z: 10.2508106232
linear_acceleration_covariance: [0.01, 0.0, 0.0, 0.0, 0.01, 0.0, 0.0, 0.0, 0.01]
---
header: 
  seq: 10856
  stamp: 
    secs: 1638974348
    nsecs: 108581685
  frame_id: "imu"
orientation: 
  x: 0.875809371471
  y: -0.482583761215
  z: 0.00577870942652
  w: 0.00612125732005
orientation_covariance: [2.0656644389340963e-07, 0.0, 0.0, 0.0, 2.0402459119864071e-07, 0.0, 0.0, 0.0, 1.547449607785349e-06]
angular_velocity: 
  x: 0.000890159513801
  y: -3.03324723063e-05
  z: 0.000614233314991
angular_velocity_covariance: [0.01, 0.0, 0.0, 0.0, 0.01, 0.0, 0.0, 0.0, 0.01]
linear_acceleration: 
  x: 0.000814631581306
  y: -0.0175383966416
  z: 10.2365112305
linear_acceleration_covariance: [0.01, 0.0, 0.0, 0.0, 0.01, 0.0, 0.0, 0.0, 0.01]
---
header: 
  seq: 10857
  stamp: 
    secs: 1638974348
    nsecs: 133713578
  frame_id: "imu"
orientation: 
  x: 0.875783860683
  y: -0.482629925013
  z: 0.00577185908332
  w: 0.00613574776798
orientation_covariance: [2.0717244007997527e-07, 0.0, 0.0, 0.0, 2.0460055697975504e-07, 0.0, 0.0, 0.0, 1.5457483423948301e-06]
angular_velocity: 
  x: -0.00300339981914
  y: 0.000156226931722
  z: -4.71981002192e-05
angular_velocity_covariance: [0.01, 0.0, 0.0, 0.0, 0.01, 0.0, 0.0, 0.0, 0.01]
linear_acceleration: 
  x: 0.0382344424725
  y: -0.00729786325246
  z: 10.1958446503
linear_acceleration_covariance: [0.01, 0.0, 0.0, 0.0, 0.01, 0.0, 0.0, 0.0, 0.01]
---
header: 
  seq: 10858
  stamp: 
    secs: 1638974348
    nsecs: 158656371
  frame_id: "imu"
orientation: 
  x: 0.875814378262
  y: -0.4825745821
  z: 0.00577052216977
  w: 0.00614730780944
orientation_covariance: [2.076179504621465e-07, 0.0, 0.0, 0.0, 2.0504341265098816e-07, 0.0, 0.0, 0.0, 1.5459598176105616e-06]
angular_velocity: 
  x: -0.00066665338818
  y: 0.00141504884232
  z: -0.000166673591593
angular_velocity_covariance: [0.01, 0.0, 0.0, 0.0, 0.01, 0.0, 0.0, 0.0, 0.01]
linear_acceleration: 
  x: 0.0254354961216
  y: -0.0301440674812
  z: 10.2365732193
linear_acceleration_covariance: [0.01, 0.0, 0.0, 0.0, 0.01, 0.0, 0.0, 0.0, 0.01]
---
header: 
  seq: 10859
  stamp: 
    secs: 1638974348
    nsecs: 183699577
  frame_id: "imu"
orientation: 
  x: 0.875831663609
  y: -0.482543349266
  z: 0.00576941622421
  w: 0.00612952560186
orientation_covariance: [2.0785742548569424e-07, 0.0, 0.0, 0.0, 2.0526207428849448e-07, 0.0, 0.0, 0.0, 1.544377338098021e-06]
angular_velocity: 
  x: 0.0014142349828
  y: 2.14597239392e-05
  z: 0.00114506587852
angular_velocity_covariance: [0.01, 0.0, 0.0, 0.0, 0.01, 0.0, 0.0, 0.0, 0.01]
linear_acceleration: 
  x: 0.00520434603095
  y: -0.0163130499423
  z: 10.2055883408
