header: 
  seq: 1947
  stamp: 
    secs: 1639023925
    nsecs: 637476444
  frame_id: "imu"
orientation: 
  x: 0.977862596512
  y: -0.209075197577
  z: 0.00789444893599
  w: 0.00317294592969
orientation_covariance: [2.758798872900251e-07, 0.0, 0.0, 0.0, 2.752447459713661e-07, 0.0, 0.0, 0.0, 4.920468606393165e-06]
angular_velocity: 
  x: 0.00105414958671
  y: 0.000207129909541
  z: 0.000249738164712
angular_velocity_covariance: [0.01, 0.0, 0.0, 0.0, 0.01, 0.0, 0.0, 0.0, 0.01]
linear_acceleration: 
  x: 0.0104178134352
  y: 0.00261280871928
  z: 9.98545837402
linear_acceleration_covariance: [0.01, 0.0, 0.0, 0.0, 0.01, 0.0, 0.0, 0.0, 0.01]
---
header: 
  seq: 1948
  stamp: 
    secs: 1639023925
    nsecs: 662542178
  frame_id: "imu"
orientation: 
  x: 0.977862536907
  y: -0.209076076746
  z: 0.00788626354188
  w: 0.00317082204856
orientation_covariance: [2.7546791255290617e-07, 0.0, 0.0, 0.0, 2.748465394977026e-07, 0.0, 0.0, 0.0, 4.932334512708165e-06]
angular_velocity: 
  x: -0.000384975253837
  y: -0.00188884732779
  z: 0.000903370266315
angular_velocity_covariance: [0.01, 0.0, 0.0, 0.0, 0.01, 0.0, 0.0, 0.0, 0.01]
linear_acceleration: 
  x: -0.0178934633732
  y: 0.00193257909268
  z: 10.0105571747
linear_acceleration_covariance: [0.01, 0.0, 0.0, 0.0, 0.01, 0.0, 0.0, 0.0, 0.01]
---
header: 
  seq: 1949
  stamp: 
    secs: 1639023925
    nsecs: 687512934
  frame_id: "imu"
orientation: 
  x: 0.977862894535
  y: -0.209073007107
  z: 0.00790373887867
  w: 0.00319050857797
orientation_covariance: [2.748966148716937e-07, 0.0, 0.0, 0.0, 2.7428974583082225e-07, 0.0, 0.0, 0.0, 4.944220492258505e-06]
angular_velocity: 
  x: -0.00118427444249
  y: 0.000534732767846
  z: 0.000210548270843
angular_velocity_covariance: [0.01, 0.0, 0.0, 0.0, 0.01, 0.0, 0.0, 0.0, 0.01]
linear_acceleration: 
  x: -0.0206657554954
  y: 0.011991254054
  z: 10.0324401855
linear_acceleration_covariance: [0.01, 0.0, 0.0, 0.0, 0.01, 0.0, 0.0, 0.0, 0.01]
---
header: 
  seq: 1950
  stamp: 
    secs: 1639023925
    nsecs: 712494222
  frame_id: "imu"
orientation: 
  x: 0.977862477303
  y: -0.209075376391
  z: 0.00789153669029
  w: 0.00319120148197
orientation_covariance: [2.744891563603229e-07, 0.0, 0.0, 0.0, 2.7389553168115073e-07, 0.0, 0.0, 0.0, 4.956127723883734e-06]
angular_velocity: 
  x: 0.000175464519998
  y: 0.000600592582487
  z: -0.00141234777402
angular_velocity_covariance: [0.01, 0.0, 0.0, 0.0, 0.01, 0.0, 0.0, 0.0, 0.01]
linear_acceleration: 
  x: 0.00690309330821
  y: -0.0176011286676
  z: 9.989610672
linear_acceleration_covariance: [0.01, 0.0, 0.0, 0.0, 0.01, 0.0, 0.0, 0.0, 0.01]
---
header: 
  seq: 1951
  stamp: 
    secs: 1639023925
    nsecs: 737600201
  frame_id: "imu"
orientation: 
  x: 0.977863252163
  y: -0.20907202363
  z: 0.00789143517613
  w: 0.00318146497011
orientation_covariance: [2.741843310538844e-07, 0.0, 0.0, 0.0, 2.736030414186344e-07, 0.0, 0.0, 0.0, 4.968053913904856e-06]
angular_velocity: 
  x: 0.000907971349079
  y: 0.000123773119412
  z: 0.000539504108019
angular_velocity_covariance: [0.01, 0.0, 0.0, 0.0, 0.01, 0.0, 0.0, 0.0, 0.01]
linear_acceleration: 
  x: -0.00252293748781
  y: -0.00317084277049
  z: 10.0524454117
linear_acceleration_covariance: [0.01, 0.0, 0.0, 0.0, 0.01, 0.0, 0.0, 0.0, 0.01]
---
header: 
  seq: 1952
  stamp: 
    secs: 1639023925
    nsecs: 762525171
  frame_id: "imu"
orientation: 
  x: 0.977862596512
  y: -0.209075570107
  z: 0.00788187049329
  w: 0.00317880930379
orientation_covariance: [2.746849590760232e-07, 0.0, 0.0, 0.0, 2.74112602027797e-07, 0.0, 0.0, 0.0, 4.980007204347991e-06]
angular_velocity: 
  x: 0.00162102631293
  y: -0.00103433267213
  z: 0.000607363937888
angular_velocity_covariance: [0.01, 0.0, 0.0, 0.0, 0.01, 0.0, 0.0, 0.0, 0.01]
linear_acceleration: 
  x: -0.00876241084188
  y: 0.0157476458699
  z: 9.99550533295
linear_acceleration_covariance: [0.01, 0.0, 0.0, 0.0, 0.01, 0.0, 0.0, 0.0, 0.01]
---
header: 
  seq: 1953
  stamp: 
    secs: 1639023925
    nsecs: 787456706
  frame_id: "imu"
orientation: 
  x: 0.977862894535
  y: -0.209073722363
  z: 0.00788796041161
  w: 0.00319505133666
orientation_covariance: [2.750069740518319e-07, 0.0, 0.0, 0.0, 2.744441932619748e-07, 0.0, 0.0, 0.0, 4.9919771818180915e-06]
angular_velocity: 
  x: -0.000180033675861
  y: 0.000194350417587
  z: 0.000408764521126
angular_velocity_covariance: [0.01, 0.0, 0.0, 0.0, 0.01, 0.0, 0.0, 0.0, 0.01]
linear_acceleration: 
  x: 0.00357409915887
  y: 0.00983326509595
  z: 10.0052251816
linear_acceleration_covariance: [0.01, 0.0, 0.0, 0.0, 0.01, 0.0, 0.0, 0.0, 0.01]
---
header: 
  seq: 1954
  stamp: 
    secs: 1639023925
    nsecs: 812107092
  frame_id: "imu"
orientation: 
  x: 0.977862596512
  y: -0.209075257182
  z: 0.00787941459566
  w: 0.00319598149508
orientation_covariance: [2.751035437141421e-07, 0.0, 0.0, 0.0, 2.7455098663407723e-07, 0.0, 0.0, 0.0, 5.003965018228914e-06]
angular_velocity: 
  x: -0.0013634491479
  y: -6.82284953655e-05
  z: -0.00166838010773
angular_velocity_covariance: [0.01, 0.0, 0.0, 0.0, 0.01, 0.0, 0.0, 0.0, 0.01]
linear_acceleration: 
  x: -0.0505000501871
  y: -0.0358091071248
  z: 10.0512990952
linear_acceleration_covariance: [0.01, 0.0, 0.0, 0.0, 0.01, 0.0, 0.0, 0.0, 0.01]
---
header: 
  seq: 1955
  stamp: 
    secs: 1639023925
    nsecs: 837569552
  frame_id: "imu"
orientation: 
  x: 0.977862775326
  y: -0.209075763822
  z: 0.00785929150879
  w: 0.00318110128865
orientation_covariance: [2.7499572233379663e-07, 0.0, 0.0, 0.0, 2.7445390089191806e-07, 0.0, 0.0, 0.0, 5.015974220963621e-06]
angular_velocity: 
  x: 0.000475826498587
  y: -0.000116852846986
  z: 0.000123093501315
angular_velocity_covariance: [0.01, 0.0, 0.0, 0.0, 0.01, 0.0, 0.0, 0.0, 0.01]
linear_acceleration: 
  x: 0.0206538252532
  y: -0.0112461009994
  z: 10.0001192093
linear_acceleration_covariance: [0.01, 0.0, 0.0, 0.0, 0.01, 0.0, 0.0, 0.0, 0.01]
---
header: 
  seq: 1956
  stamp: 
    secs: 1639023925
    nsecs: 862516681
  frame_id: "imu"
orientation: 
  x: 0.977863550186
  y: -0.209071829915
  z: 0.00786256790161
  w: 0.00318074086681
orientation_covariance: [2.7462444255294864e-07, 0.0, 0.0, 0.0, 2.7409428828916935e-07, 0.0, 0.0, 0.0, 5.0280059814796125e-06]
angular_velocity: 
  x: 0.00149855995551
  y: -0.000264127622359
  z: 0.000452497450169
angular_velocity_covariance: [0.01, 0.0, 0.0, 0.0, 0.01, 0.0, 0.0, 0.0, 0.01]
linear_acceleration: 
  x: 0.0208454113454
  y: -0.00494462577626
  z: 9.96852397919
linear_acceleration_covariance: [0.01, 0.0, 0.0, 0.0, 0.01, 0.0, 0.0, 0.0, 0.01]
---
header: 
  seq: 1957
  stamp: 
    secs: 1639023925
    nsecs: 887486348
  frame_id: "imu"
orientation: 
  x: 0.977865278721
  y: -0.209063127637
  z: 0.00787116028368
  w: 0.00320329819806
orientation_covariance: [2.74003443490688e-07, 0.0, 0.0, 0.0, 2.734858918537684e-07, 0.0, 0.0, 0.0, 5.040055658149701e-06]
angular_velocity: 
  x: -0.00169288611505
  y: -0.000606921035796
  z: 0.000668022665195
angular_velocity_covariance: [0.01, 0.0, 0.0, 0.0, 0.01, 0.0, 0.0, 0.0, 0.01]
linear_acceleration: 
  x: -0.0278401076794
  y: -0.000496336491778
  z: 10.0082130432
linear_acceleration_covariance: [0.01, 0.0, 0.0, 0.0, 0.01, 0.0, 0.0, 0.0, 0.01]
---
header: 
  seq: 1958
  stamp: 
    secs: 1639023925
    nsecs: 912200912
  frame_id: "imu"
orientation: 
  x: 0.977866172791
  y: -0.209058970213
  z: 0.00786827690899
  w: 0.00321333506145
orientation_covariance: [2.7313136556359025e-07, 0.0, 0.0, 0.0, 2.7262692783976725e-07, 0.0, 0.0, 0.0, 5.052126770948387e-06]
angular_velocity: 
  x: -0.000930734502617
  y: -0.00168121955357
  z: -0.00101622566581
angular_velocity_covariance: [0.01, 0.0, 0.0, 0.0, 0.01, 0.0, 0.0, 0.0, 0.01]
linear_acceleration: 
  x: -0.0272869952023
  y: -0.000308841845253
  z: 10.0269088745
linear_acceleration_covariance: [0.01, 0.0, 0.0, 0.0, 0.01, 0.0, 0.0, 0.0, 0.01]
---
header: 
  seq: 1959
  stamp: 
    secs: 1639023925
    nsecs: 937605917
  frame_id: "imu"
orientation: 
  x: 0.977867603302
  y: -0.20905277133
  z: 0.007863025181
  w: 0.00318582961336
orientation_covariance: [2.72298133000545e-07, 0.0, 0.0, 0.0, 2.7180616015316425e-07, 0.0, 0.0, 0.0, 5.064214662899916e-06]
angular_velocity: 
  x: -0.000915918499231
  y: -0.000233990969718
  z: -0.000166258527315
angular_velocity_covariance: [0.01, 0.0, 0.0, 0.0, 0.01, 0.0, 0.0, 0.0, 0.01]
linear_acceleration: 
  x: 0.0368237793446
  y: -0.00977823603898
  z: 9.99589538574
linear_acceleration_covariance: [0.01, 0.0, 0.0, 0.0, 0.01, 0.0, 0.0, 0.0, 0.01]
---
header: 
  seq: 1960
  stamp: 
    secs: 1639023925
    nsecs: 962473305
  frame_id: "imu"
orientation: 
  x: 0.977868914604
  y: -0.209046706557
  z: 0.00786829553545
  w: 0.00317429658026
orientation_covariance: [2.7089579392494474e-07, 0.0, 0.0, 0.0, 2.7041820855124986e-07, 0.0, 0.0, 0.0, 5.076328717841407e-06]
angular_velocity: 
  x: 0.000992792076431
  y: -0.0011262515327
  z: 0.00169406470377
angular_velocity_covariance: [0.01, 0.0, 0.0, 0.0, 0.01, 0.0, 0.0, 0.0, 0.01]
linear_acceleration: 
  x: 0.0128691382706
  y: 0.0296049155295
  z: 10.0170135498
linear_acceleration_covariance: [0.01, 0.0, 0.0, 0.0, 0.01, 0.0, 0.0, 0.0, 0.01]
---
header: 
  seq: 1961
  stamp: 
    secs: 1639023925
    nsecs: 987106247
  frame_id: "imu"
orientation: 
  x: 0.977870106697
  y: -0.209040224552
  z: 0.00788178481162
  w: 0.00320579856634
orientation_covariance: [2.696481417930864e-07, 0.0, 0.0, 0.0, 2.691842741788285e-07, 0.0, 0.0, 0.0, 5.088460764424978e-06]
angular_velocity: 
  x: -0.000507240416482
  y: 0.000881036976352
  z: 0.000624601787422
angular_velocity_covariance: [0.01, 0.0, 0.0, 0.0, 0.01, 0.0, 0.0, 0.0, 0.01]
linear_acceleration: 
  x: -0.0333192497492
  y: 0.0237070545554
  z: 9.99090862274
linear_acceleration_covariance: [0.01, 0.0, 0.0, 0.0, 0.01, 0.0, 0.0, 0.0, 0.01]
---
header: 
  seq: 1962
  stamp: 
    secs: 1639023926
    nsecs:  12131960
  frame_id: "imu"
orientation: 
  x: 0.977871417999
  y: -0.20903404057
  z: 0.00787722039968
  w: 0.00320783141069
orientation_covariance: [2.678929536897748e-07, 0.0, 0.0, 0.0, 2.6744384671657886e-07, 0.0, 0.0, 0.0, 5.100611989978289e-06]
angular_velocity: 
  x: -0.000959616503678
  y: 0.000845691247378
  z: -0.000820238667075
angular_velocity_covariance: [0.01, 0.0, 0.0, 0.0, 0.01, 0.0, 0.0, 0.0, 0.01]
linear_acceleration: 
  x: 0.0234809126705
  y: -0.0208396054804
  z: 10.056432724
linear_acceleration_covariance: [0.01, 0.0, 0.0, 0.0, 0.01, 0.0, 0.0, 0.0, 0.01]
---
header: 
  seq: 1963
  stamp: 
    secs: 1639023926
    nsecs:  37070672
  frame_id: "imu"
orientation: 
  x: 0.977874219418
  y: -0.209022015333
  z: 0.00785099621862
  w: 0.00319246365689
orientation_covariance: [2.661551025023037e-07, 0.0, 0.0, 0.0, 2.6572032513440093e-07, 0.0, 0.0, 0.0, 5.11278711583257e-06]
angular_velocity: 
  x: -0.000435335037764
  y: -0.000924530613702
  z: 0.000227508644457
angular_velocity_covariance: [0.01, 0.0, 0.0, 0.0, 0.01, 0.0, 0.0, 0.0, 0.01]
linear_acceleration: 
  x: 0.0247372575104
  y: 0.0055603319779
  z: 9.96979045868
linear_acceleration_covariance: [0.01, 0.0, 0.0, 0.0, 0.01, 0.0, 0.0, 0.0, 0.01]
---
header: 
  seq: 1964
  stamp: 
    secs: 1639023926
    nsecs:  62087667
  frame_id: "imu"
orientation: 
  x: 0.977874755859
  y: -0.209019064903
  z: 0.00786190200597
  w: 0.00319842272438
orientation_covariance: [2.638393058109194e-07, 0.0, 0.0, 0.0, 2.634203401301509e-07, 0.0, 0.0, 0.0, 5.124983820546941e-06]
angular_velocity: 
  x: 0.00260854163207
  y: -0.00161778193433
  z: -3.45802400261e-05
angular_velocity_covariance: [0.01, 0.0, 0.0, 0.0, 0.01, 0.0, 0.0, 0.0, 0.01]
linear_acceleration: 
  x: -0.0133751947433
  y: 0.0146479662508
  z: 10.0105600357
linear_acceleration_covariance: [0.01, 0.0, 0.0, 0.0, 0.01, 0.0, 0.0, 0.0, 0.01]
---
header: 
  seq: 1965
  stamp: 
    secs: 1639023926
    nsecs:  87568427
  frame_id: "imu"
orientation: 
  x: 0.977875888348
  y: -0.209013998508
  z: 0.00785549916327
  w: 0.00319534842856
orientation_covariance: [2.616399413846129e-07, 0.0, 0.0, 0.0, 2.6123621824891516e-07, 0.0, 0.0, 0.0, 5.137197413608511e-06]
angular_velocity: 
  x: -0.00106206303462
  y: 0.00210277992301
  z: -0.000966098101344
angular_velocity_covariance: [0.01, 0.0, 0.0, 0.0, 0.01, 0.0, 0.0, 0.0, 0.01]
linear_acceleration: 
  x: -0.0369347222149
  y: 0.00766252819449
  z: 10.0004482269
linear_acceleration_covariance: [0.01, 0.0, 0.0, 0.0, 0.01, 0.0, 0.0, 0.0, 0.01]
---
header: 
  seq: 1966
  stamp: 
    secs: 1639023926
    nsecs: 112528724
  frame_id: "imu"
orientation: 
  x: 0.977876424789
  y: -0.209010705352
  z: 0.00787125062197
  w: 0.00321159488522
orientation_covariance: [2.5891199309100025e-07, 0.0, 0.0, 0.0, 2.5852459609550954e-07, 0.0, 0.0, 0.0, 5.14943498547085e-06]
angular_velocity: 
  x: -0.000316766585456
  y: 0.00109091878403
  z: -0.0011811372824
angular_velocity_covariance: [0.01, 0.0, 0.0, 0.0, 0.01, 0.0, 0.0, 0.0, 0.01]
linear_acceleration: 
  x: -0.00984014570713
  y: 0.0271811373532
  z: 10.0426168442
linear_acceleration_covariance: [0.01, 0.0, 0.0, 0.0, 0.01, 0.0, 0.0, 0.0, 0.01]
---
header: 
  seq: 1967
  stamp: 
    secs: 1639023926
    nsecs: 137300205
  frame_id: "imu"
orientation: 
  x: 0.97787964344
  y: -0.208996683359
  z: 0.00784436892718
  w: 0.00320698437281
orientation_covariance: [2.563226891113418e-07, 0.0, 0.0, 0.0, 2.559506224819099e-07, 0.0, 0.0, 0.0, 5.161690661092293e-06]
angular_velocity: 
  x: 0.000537785177585
  y: 0.000372035428882
  z: 0.000415315531427
angular_velocity_covariance: [0.01, 0.0, 0.0, 0.0, 0.01, 0.0, 0.0, 0.0, 0.01]
linear_acceleration: 
  x: -0.0160436891019
  y: -0.0143964299932
  z: 10.007724762
linear_acceleration_covariance: [0.01, 0.0, 0.0, 0.0, 0.01, 0.0, 0.0, 0.0, 0.01]
---
header: 
  seq: 1968
  stamp: 
    secs: 1639023926
    nsecs: 162488575
  frame_id: "imu"
orientation: 
  x: 0.977881908417
  y: -0.208987087011
  z: 0.00782883912325
  w: 0.00320061179809
orientation_covariance: [2.541503574095933e-07, 0.0, 0.0, 0.0, 2.5379176122739185e-07, 0.0, 0.0, 0.0, 5.173969185701209e-06]
angular_velocity: 
  x: 0.00179376627784
  y: -0.000967742467765
  z: 9.34090203373e-05
angular_velocity_covariance: [0.01, 0.0, 0.0, 0.0, 0.01, 0.0, 0.0, 0.0, 0.01]
linear_acceleration: 
  x: 0.0215352103114
  y: -0.00644143484533
  z: 10.0477514267
linear_acceleration_covariance: [0.01, 0.0, 0.0, 0.0, 0.01, 0.0, 0.0, 0.0, 0.01]
---
header: 
  seq: 1969
  stamp: 
    secs: 1639023926
    nsecs: 187524694
  frame_id: "imu"
orientation: 
  x: 0.977882266045
  y: -0.208984464407
  z: 0.00783614814281
  w: 0.00321121723391
orientation_covariance: [2.5420785332603944e-07, 0.0, 0.0, 0.0, 2.538564562729517e-07, 0.0, 0.0, 0.0, 5.186265850579626e-06]
angular_velocity: 
  x: 0.000366548076272
  y: 0.00083384354366
  z: 5.65630762139e-05
angular_velocity_covariance: [0.01, 0.0, 0.0, 0.0, 0.01, 0.0, 0.0, 0.0, 0.01]
linear_acceleration: 
  x: -0.00332820485346
  y: 0.0225268602371
  z: 9.9500875473
linear_acceleration_covariance: [0.01, 0.0, 0.0, 0.0, 0.01, 0.0, 0.0, 0.0, 0.01]
---
header: 
  seq: 1970
  stamp: 
    secs: 1639023926
    nsecs: 212096840
  frame_id: "imu"
orientation: 
  x: 0.977884292603
  y: -0.208974614739
  z: 0.00785042345524
  w: 0.00322133046575
orientation_covariance: [2.5405652257184165e-07, 0.0, 0.0, 0.0, 2.5371282806199053e-07, 0.0, 0.0, 0.0, 5.198581854333275e-06]
angular_velocity: 
  x: -0.00267724040896
  y: 0.00137315562461
  z: -0.000694565591402
angular_velocity_covariance: [0.01, 0.0, 0.0, 0.0, 0.01, 0.0, 0.0, 0.0, 0.01]
linear_acceleration: 
  x: -0.0217332430184
  y: -0.0172985345125
  z: 10.0192575455
linear_acceleration_covariance: [0.01, 0.0, 0.0, 0.0, 0.01, 0.0, 0.0, 0.0, 0.01]
---
header: 
  seq: 1971
  stamp: 
    secs: 1639023926
    nsecs: 237594565
  frame_id: "imu"
orientation: 
  x: 0.977886617184
  y: -0.208964288235
  z: 0.00784377753735
  w: 0.00320198945701
orientation_covariance: [2.537018569963328e-07, 0.0, 0.0, 0.0, 2.5336609343680463e-07, 0.0, 0.0, 0.0, 5.210919588562171e-06]
angular_velocity: 
  x: 0.000130172353238
  y: -0.000442748249043
  z: -0.00021190449479
angular_velocity_covariance: [0.01, 0.0, 0.0, 0.0, 0.01, 0.0, 0.0, 0.0, 0.01]
linear_acceleration: 
  x: -0.00304654985666
  y: 0.0048701884225
  z: 9.98681640625
linear_acceleration_covariance: [0.01, 0.0, 0.0, 0.0, 0.01, 0.0, 0.0, 0.0, 0.01]
---
header: 
  seq: 1972
  stamp: 
    secs: 1639023926
    nsecs: 262593040
  frame_id: "imu"
orientation: 
  x: 0.977887988091
  y: -0.208958536386
  z: 0.00783232226968
  w: 0.00319557427429
orientation_covariance: [2.5310107069532646e-07, 0.0, 0.0, 0.0, 2.527737792138215e-07, 0.0, 0.0, 0.0, 5.223280267356427e-06]
angular_velocity: 
  x: 0.00346833909862
  y: -0.00110390793998
  z: -0.000265743437922
angular_velocity_covariance: [0.01, 0.0, 0.0, 0.0, 0.01, 0.0, 0.0, 0.0, 0.01]
linear_acceleration: 
  x: 0.00373270874843
  y: -0.00568726053461
  z: 10.005437851
linear_acceleration_covariance: [0.01, 0.0, 0.0, 0.0, 0.01, 0.0, 0.0, 0.0, 0.01]
---
header: 
  seq: 1973
  stamp: 
    secs: 1639023926
    nsecs: 287534112
  frame_id: "imu"
orientation: 
  x: 0.977889060974
  y: -0.208952620625
  z: 0.00783879682422
  w: 0.00321938772686
orientation_covariance: [2.5231010045706984e-07, 0.0, 0.0, 0.0, 2.519916763476049e-07, 0.0, 0.0, 0.0, 5.235657969363947e-06]
angular_velocity: 
  x: -0.00177774147596
  y: -0.00182493205648
  z: -0.000599592807703
angular_velocity_covariance: [0.01, 0.0, 0.0, 0.0, 0.01, 0.0, 0.0, 0.0, 0.01]
linear_acceleration: 
  x: -0.0525691621006
  y: 0.00505367899314
  z: 10.0320940018
linear_acceleration_covariance: [0.01, 0.0, 0.0, 0.0, 0.01, 0.0, 0.0, 0.0, 0.01]
---
header: 
  seq: 1974
  stamp: 
    secs: 1639023926
    nsecs: 312551020
  frame_id: "imu"
orientation: 
  x: 0.977891743183
  y: -0.208939686418
  z: 0.00784739758819
  w: 0.00323091261089
orientation_covariance: [2.51284667546244e-07, 0.0, 0.0, 0.0, 2.50975327609761e-07, 0.0, 0.0, 0.0, 5.248058660978755e-06]
angular_velocity: 
  x: -0.000862288288772
  y: 0.000956851115916
  z: -0.00103224127088
angular_velocity_covariance: [0.01, 0.0, 0.0, 0.0, 0.01, 0.0, 0.0, 0.0, 0.01]
linear_acceleration: 
  x: -0.0194134302437
  y: -0.0268178284168
  z: 10.0363721848
linear_acceleration_covariance: [0.01, 0.0, 0.0, 0.0, 0.01, 0.0, 0.0, 0.0, 0.01]
---
header: 
  seq: 1975
  stamp: 
    secs: 1639023926
    nsecs: 337615388
  frame_id: "imu"
orientation: 
  x: 0.977892875671
  y: -0.208934858441
  z: 0.00783204287291
  w: 0.00323074194603
orientation_covariance: [2.4999103725362997e-07, 0.0, 0.0, 0.0, 2.496912993406078e-07, 0.0, 0.0, 0.0, 5.260478792784468e-06]
angular_velocity: 
  x: 0.0017090322217
  y: 0.0002221481991
  z: -0.00100183393806
angular_velocity_covariance: [0.01, 0.0, 0.0, 0.0, 0.01, 0.0, 0.0, 0.0, 0.01]
linear_acceleration: 
  x: 0.0372708812356
  y: -0.0169127825648
  z: 9.95486354828
linear_acceleration_covariance: [0.01, 0.0, 0.0, 0.0, 0.01, 0.0, 0.0, 0.0, 0.01]
---
header: 
  seq: 1976
  stamp: 
    secs: 1639023926
    nsecs: 362483660
  frame_id: "imu"
orientation: 
  x: 0.977894663811
  y: -0.208927094936
  z: 0.00782447960228
  w: 0.00320891104639
orientation_covariance: [2.497233672235625e-07, 0.0, 0.0, 0.0, 2.4943041416125945e-07, 0.0, 0.0, 0.0, 5.272917187282534e-06]
angular_velocity: 
  x: 0.000699847238138
  y: -0.000997936236672
  z: 0.000245179486228
angular_velocity_covariance: [0.01, 0.0, 0.0, 0.0, 0.01, 0.0, 0.0, 0.0, 0.01]
linear_acceleration: 
  x: 0.0034939898178
  y: -0.0252261329442
  z: 10.0048322678
linear_acceleration_covariance: [0.01, 0.0, 0.0, 0.0, 0.01, 0.0, 0.0, 0.0, 0.01]
---
header: 
  seq: 1977
  stamp: 
    secs: 1639023926
    nsecs: 387535446
  frame_id: "imu"
orientation: 
  x: 0.97789555788
  y: -0.20892252028
  z: 0.00783440843225
  w: 0.00322042498738
orientation_covariance: [2.490576748327864e-07, 0.0, 0.0, 0.0, 2.487722145909432e-07, 0.0, 0.0, 0.0, 5.285377444615905e-06]
angular_velocity: 
  x: 0.000759366026614
  y: -0.00133674254175
  z: -0.00113873020746
angular_velocity_covariance: [0.01, 0.0, 0.0, 0.0, 0.01, 0.0, 0.0, 0.0, 0.01]
linear_acceleration: 
  x: 0.00825681164861
  y: 0.00730291660875
  z: 9.99941062927
linear_acceleration_covariance: [0.01, 0.0, 0.0, 0.0, 0.01, 0.0, 0.0, 0.0, 0.01]
---
header: 
  seq: 1978
  stamp: 
    secs: 1639023926
    nsecs: 412516283
  frame_id: "imu"
orientation: 
  x: 0.977895796299
  y: -0.208921387792
  z: 0.00783292762935
  w: 0.00323867728002
orientation_covariance: [2.4838136739103513e-07, 0.0, 0.0, 0.0, 2.4810348468631744e-07, 0.0, 0.0, 0.0, 5.297861984632658e-06]
angular_velocity: 
  x: -0.00261470442638
  y: 0.0015161249321
  z: -2.25249664254e-07
angular_velocity_covariance: [0.01, 0.0, 0.0, 0.0, 0.01, 0.0, 0.0, 0.0, 0.01]
linear_acceleration: 
  x: 0.0220211613923
  y: 0.020187433809
  z: 10.0176820755
linear_acceleration_covariance: [0.01, 0.0, 0.0, 0.0, 0.01, 0.0, 0.0, 0.0, 0.01]
---
header: 
  seq: 1979
  stamp: 
    secs: 1639023926
    nsecs: 437547078
  frame_id: "imu"
orientation: 
  x: 0.977897763252
  y: -0.208912402391
  z: 0.00782560743392
  w: 0.00321840983815
orientation_covariance: [2.4794054636719747e-07, 0.0, 0.0, 0.0, 2.476694789410659e-07, 0.0, 0.0, 0.0, 5.310361252067675e-06]
angular_velocity: 
  x: 0.000580784515478
  y: 0.00137293955777
  z: -0.000515749270562
angular_velocity_covariance: [0.01, 0.0, 0.0, 0.0, 0.01, 0.0, 0.0, 0.0, 0.01]
linear_acceleration: 
  x: -0.0103098526597
  y: -0.0243600532413
  z: 9.99957847595
linear_acceleration_covariance: [0.01, 0.0, 0.0, 0.0, 0.01, 0.0, 0.0, 0.0, 0.01]
---
header: 
  seq: 1980
  stamp: 
    secs: 1639023926
    nsecs: 462525130
  frame_id: "imu"
orientation: 
  x: 0.977898657322
  y: -0.208908766508
  z: 0.0078152930364
  w: 0.00319884973578
orientation_covariance: [2.4751955740405766e-07, 0.0, 0.0, 0.0, 2.4725483065821807e-07, 0.0, 0.0, 0.0, 5.322883647299e-06]
angular_velocity: 
  x: 0.00266425916925
  y: -2.22363196372e-05
  z: -0.00154569628648
angular_velocity_covariance: [0.01, 0.0, 0.0, 0.0, 0.01, 0.0, 0.0, 0.0, 0.01]
linear_acceleration: 
  x: 0.00344214565121
  y: -0.0017707219813
  z: 10.0217838287
linear_acceleration_covariance: [0.01, 0.0, 0.0, 0.0, 0.01, 0.0, 0.0, 0.0, 0.01]
---
header: 
  seq: 1981
  stamp: 
    secs: 1639023926
    nsecs: 487606877
  frame_id: "imu"
orientation: 
  x: 0.977898538113
  y: -0.208909377456
  z: 0.00781140476465
  w: 0.00321996258572
orientation_covariance: [2.4760858604121814e-07, 0.0, 0.0, 0.0, 2.473493088503177e-07, 0.0, 0.0, 0.0, 5.3354279985198825e-06]
angular_velocity: 
  x: -0.00146743352525
  y: 0.00109222962055
  z: -0.000964988023043
angular_velocity_covariance: [0.01, 0.0, 0.0, 0.0, 0.01, 0.0, 0.0, 0.0, 0.01]
linear_acceleration: 
  x: -0.000644793210085
  y: 0.0065359082073
  z: 9.99415683746
linear_acceleration_covariance: [0.01, 0.0, 0.0, 0.0, 0.01, 0.0, 0.0, 0.0, 0.01]
---
header: 
  seq: 1982
  stamp: 
    secs: 1639023926
    nsecs: 512570063
  frame_id: "imu"
orientation: 
  x: 0.977901220322
  y: -0.208895996213
  z: 0.00782410893589
  w: 0.00323564815335
orientation_covariance: [2.4768882904939447e-07, 0.0, 0.0, 0.0, 2.4743481391067e-07, 0.0, 0.0, 0.0, 5.347993128286969e-06]
angular_velocity: 
  x: -0.0012550984975
  y: 0.00132349622436
  z: -0.00147119420581
angular_velocity_covariance: [0.01, 0.0, 0.0, 0.0, 0.01, 0.0, 0.0, 0.0, 0.01]
linear_acceleration: 
  x: -0.0114969778806
  y: -0.01828356646
  z: 10.0183334351
linear_acceleration_covariance: [0.01, 0.0, 0.0, 0.0, 0.01, 0.0, 0.0, 0.0, 0.01]
---
header: 
  seq: 1983
  stamp: 
    secs: 1639023926
    nsecs: 537695761
  frame_id: "imu"
orientation: 
  x: 0.977901101112
  y: -0.208897188306
  z: 0.00781907327473
  w: 0.00320227374323
orientation_covariance: [2.4749215973339797e-07, 0.0, 0.0, 0.0, 2.4724380614507665e-07, 0.0, 0.0, 0.0, 5.360577853512869e-06]
angular_velocity: 
  x: 0.00147058512084
  y: 0.000296285288641
  z: -0.00126338773407
angular_velocity_covariance: [0.01, 0.0, 0.0, 0.0, 0.01, 0.0, 0.0, 0.0, 0.01]
linear_acceleration: 
  x: -0.00455599557608
  y: 0.0192907229066
  z: 10.0251703262
linear_acceleration_covariance: [0.01, 0.0, 0.0, 0.0, 0.01, 0.0, 0.0, 0.0, 0.01]
---
header: 
  seq: 1984
  stamp: 
    secs: 1639023926
    nsecs: 562483740
  frame_id: "imu"
orientation: 
  x: 0.977904260159
  y: -0.208882406354
  z: 0.00781683064997
  w: 0.00320918415673
orientation_covariance: [2.4708131200274196e-07, 0.0, 0.0, 0.0, 2.4683901151965944e-07, 0.0, 0.0, 0.0, 5.373183396882269e-06]
angular_velocity: 
  x: 0.00195142091252
  y: 0.000211872713408
  z: 0.000588720373344
angular_velocity_covariance: [0.01, 0.0, 0.0, 0.0, 0.01, 0.0, 0.0, 0.0, 0.01]
linear_acceleration: 
  x: -0.0162583962083
  y: 0.0019879869651
  z: 10.0224437714
linear_acceleration_covariance: [0.01, 0.0, 0.0, 0.0, 0.01, 0.0, 0.0, 0.0, 0.01]
---
header: 
  seq: 1985
  stamp: 
    secs: 1639023926
    nsecs: 587558002
  frame_id: "imu"
orientation: 
  x: 0.977906405926
  y: -0.208871468902
  z: 0.00782604888082
  w: 0.00323293381371
orientation_covariance: [2.47534955107666e-07, 0.0, 0.0, 0.0, 2.4729689418159424e-07, 0.0, 0.0, 0.0, 5.385809779622203e-06]
angular_velocity: 
  x: -0.00139864720404
  y: 0.00160950026475
  z: -0.00114293617662
angular_velocity_covariance: [0.01, 0.0, 0.0, 0.0, 0.01, 0.0, 0.0, 0.0, 0.01]
linear_acceleration: 
  x: -0.0219121053815
  y: 0.0203275885433
  z: 10.0164747238
linear_acceleration_covariance: [0.01, 0.0, 0.0, 0.0, 0.01, 0.0, 0.0, 0.0, 0.01]
---
header: 
  seq: 1986
  stamp: 
    secs: 1639023926
    nsecs: 612561763
  frame_id: "imu"
orientation: 
  x: 0.977907896042
  y: -0.208865150809
  z: 0.00781704299152
  w: 0.00323627446778
orientation_covariance: [2.489194981237853e-07, 0.0, 0.0, 0.0, 2.4868372272872524e-07, 0.0, 0.0, 0.0, 5.398457022969858e-06]
angular_velocity: 
  x: -0.000933928065933
  y: 0.0015207179822
  z: -0.00102668814361
angular_velocity_covariance: [0.01, 0.0, 0.0, 0.0, 0.01, 0.0, 0.0, 0.0, 0.01]
linear_acceleration: 
  x: 0.0102974986658
  y: -0.0239943768829
  z: 10.0078735352
linear_acceleration_covariance: [0.01, 0.0, 0.0, 0.0, 0.01, 0.0, 0.0, 0.0, 0.01]
---
header: 
  seq: 1987
  stamp: 
    secs: 1639023926
    nsecs: 637132108
  frame_id: "imu"
orientation: 
  x: 0.977909266949
  y: -0.208859294653
  z: 0.00781701412052
  w: 0.00321264821105
orientation_covariance: [2.50170517524002e-07, 0.0, 0.0, 0.0, 2.4993736825766055e-07, 0.0, 0.0, 0.0, 5.411128778055278e-06]
angular_velocity: 
  x: -0.00089905387722
  y: 0.000474016036605
  z: 0.000165783087141
angular_velocity_covariance: [0.01, 0.0, 0.0, 0.0, 0.01, 0.0, 0.0, 0.0, 0.01]
linear_acceleration: 
  x: 0.061271827668
  y: -0.0229948498309
  z: 9.96563339233
linear_acceleration_covariance: [0.01, 0.0, 0.0, 0.0, 0.01, 0.0, 0.0, 0.0, 0.01]
---
header: 
  seq: 1988
  stamp: 
    secs: 1639023926
    nsecs: 662535633
  frame_id: "imu"
orientation: 
  x: 0.977911055088
  y: -0.208850800991
  z: 0.00781607162207
  w: 0.0032071263995
orientation_covariance: [2.512769431331275e-07, 0.0, 0.0, 0.0, 2.5104650388111404e-07, 0.0, 0.0, 0.0, 5.4238190220030555e-06]
angular_velocity: 
  x: 0.00168340920936
  y: -0.00117327505723
  z: -0.00031868586666
angular_velocity_covariance: [0.01, 0.0, 0.0, 0.0, 0.01, 0.0, 0.0, 0.0, 0.01]
linear_acceleration: 
  x: -0.0467035770416
  y: 0.00577838672325
  z: 10.0247621536
linear_acceleration_covariance: [0.01, 0.0, 0.0, 0.0, 0.01, 0.0, 0.0, 0.0, 0.01]
---
header: 
  seq: 1989
  stamp: 
    secs: 1639023926
    nsecs: 687545909
  frame_id: "imu"
orientation: 
  x: 0.977913558483
  y: -0.208838865161
  z: 0.00781818665564
  w: 0.00321432691999
orientation_covariance: [2.5222401829512606e-07, 0.0, 0.0, 0.0, 2.519966374285412e-07, 0.0, 0.0, 0.0, 5.4365289803725124e-06]
angular_velocity: 
  x: -4.17657201979e-06
  y: -0.000131625653012
  z: 0.000310302828439
angular_velocity_covariance: [0.01, 0.0, 0.0, 0.0, 0.01, 0.0, 0.0, 0.0, 0.01]
linear_acceleration: 
  x: -0.00201882468536
  y: -0.0221689511091
  z: 10.0297842026
linear_acceleration_covariance: [0.01, 0.0, 0.0, 0.0, 0.01, 0.0, 0.0, 0.0, 0.01]
---
header: 
  seq: 1990
  stamp: 
    secs: 1639023926
    nsecs: 712098488
  frame_id: "imu"
orientation: 
  x: 0.977915108204
  y: -0.208831503987
  z: 0.00781618617475
  w: 0.00321867596358
orientation_covariance: [2.530274778786251e-07, 0.0, 0.0, 0.0, 2.5280323298723417e-07, 0.0, 0.0, 0.0, 5.449261098619456e-06]
angular_velocity: 
  x: -0.000831743644085
  y: 0.00118778075557
  z: -0.000534176942892
angular_velocity_covariance: [0.01, 0.0, 0.0, 0.0, 0.01, 0.0, 0.0, 0.0, 0.01]
linear_acceleration: 
  x: 0.028671529144
  y: -0.00894644111395
  z: 9.99198722839
linear_acceleration_covariance: [0.01, 0.0, 0.0, 0.0, 0.01, 0.0, 0.0, 0.0, 0.01]
---
header: 
  seq: 1991
  stamp: 
    secs: 1639023926
    nsecs: 737277538
  frame_id: "imu"
orientation: 
  x: 0.977916240692
  y: -0.208826854825
  z: 0.00780864292756
  w: 0.00319948326796
orientation_covariance: [2.536801775581535e-07, 0.0, 0.0, 0.0, 2.5345934242750673e-07, 0.0, 0.0, 0.0, 5.462012971017944e-06]
angular_velocity: 
  x: 0.000464164302684
  y: -0.000760973198339
  z: -0.000117867188237
angular_velocity_covariance: [0.01, 0.0, 0.0, 0.0, 0.01, 0.0, 0.0, 0.0, 0.01]
linear_acceleration: 
  x: -0.00655444758013
  y: 0.000688717584126
  z: 10.0228939056
linear_acceleration_covariance: [0.01, 0.0, 0.0, 0.0, 0.01, 0.0, 0.0, 0.0, 0.01]
---
header: 
  seq: 1992
  stamp: 
    secs: 1639023926
    nsecs: 762533747
  frame_id: "imu"
orientation: 
  x: 0.977917194366
  y: -0.208822563291
  z: 0.00780932977796
  w: 0.00319739198312
orientation_covariance: [2.541317398293908e-07, 0.0, 0.0, 0.0, 2.539146397190024e-07, 0.0, 0.0, 0.0, 5.474783397549275e-06]
angular_velocity: 
  x: 0.00166828534566
  y: -0.00153420714196
  z: -0.000835468817968
angular_velocity_covariance: [0.01, 0.0, 0.0, 0.0, 0.01, 0.0, 0.0, 0.0, 0.01]
linear_acceleration: 
  x: 0.00494955154136
  y: 0.0149408373982
  z: 10.0153694153
linear_acceleration_covariance: [0.01, 0.0, 0.0, 0.0, 0.01, 0.0, 0.0, 0.0, 0.01]
---
header: 
  seq: 1993
  stamp: 
    secs: 1639023926
    nsecs: 787524327
  frame_id: "imu"
orientation: 
  x: 0.977918565273
  y: -0.208815559745
  z: 0.00781452003866
  w: 0.00321337021887
orientation_covariance: [2.54396120908816e-07, 0.0, 0.0, 0.0, 2.5418320205696623e-07, 0.0, 0.0, 0.0, 5.487574827951735e-06]
angular_velocity: 
  x: -0.000457084883237
  y: -0.000481240014778
  z: -0.00106057000812
angular_velocity_covariance: [0.01, 0.0, 0.0, 0.0, 0.01, 0.0, 0.0, 0.0, 0.01]
linear_acceleration: 
  x: -0.0249059665948
  y: -0.00525491032749
  z: 9.99308204651
linear_acceleration_covariance: [0.01, 0.0, 0.0, 0.0, 0.01, 0.0, 0.0, 0.0, 0.01]
---
header: 
  seq: 1994
  stamp: 
    secs: 1639023926
    nsecs: 812145963
  frame_id: "imu"
orientation: 
  x: 0.977920114994
  y: -0.208807557821
  z: 0.0078317001462
  w: 0.00321463798173
orientation_covariance: [2.544301948854025e-07, 0.0, 0.0, 0.0, 2.54221720190176e-07, 0.0, 0.0, 0.0, 5.50038728353961e-06]
angular_velocity: 
  x: -0.00141684198752
  y: 0.000980426790193
  z: 0.000190698672668
angular_velocity_covariance: [0.01, 0.0, 0.0, 0.0, 0.01, 0.0, 0.0, 0.0, 0.01]
linear_acceleration: 
  x: -0.00221723737195
  y: 0.0207418650389
  z: 9.98941516876
linear_acceleration_covariance: [0.01, 0.0, 0.0, 0.0, 0.01, 0.0, 0.0, 0.0, 0.01]
---
header: 
  seq: 1995
  stamp: 
    secs: 1639023926
    nsecs: 837537673
  frame_id: "imu"
orientation: 
  x: 0.977920413017
  y: -0.208807051182
  z: 0.00781902950257
  w: 0.00320074544288
orientation_covariance: [2.542519466750817e-07, 0.0, 0.0, 0.0, 2.5404793638597397e-07, 0.0, 0.0, 0.0, 5.513218342993683e-06]
angular_velocity: 
  x: 0.00161728356034
  y: -0.000141215627082
  z: -0.00100637157448
angular_velocity_covariance: [0.01, 0.0, 0.0, 0.0, 0.01, 0.0, 0.0, 0.0, 0.01]
linear_acceleration: 
  x: 0.001615228015
  y: -0.00735398661345
  z: 10.0117559433
linear_acceleration_covariance: [0.01, 0.0, 0.0, 0.0, 0.01, 0.0, 0.0, 0.0, 0.01]
---
header: 
  seq: 1996
  stamp: 
    secs: 1639023926
    nsecs: 862526973
  frame_id: "imu"
orientation: 
  x: 0.977920413017
  y: -0.208806604147
  z: 0.00783494580537
  w: 0.0031936399173
orientation_covariance: [2.538425010999114e-07, 0.0, 0.0, 0.0, 2.5364340322792095e-07, 0.0, 0.0, 0.0, 5.526071687345286e-06]
angular_velocity: 
  x: 0.00196387455799
  y: -0.000456185662188
  z: 0.00102994486224
angular_velocity_covariance: [0.01, 0.0, 0.0, 0.0, 0.01, 0.0, 0.0, 0.0, 0.01]
linear_acceleration: 
  x: 0.00271251890808
  y: -0.00293348613195
  z: 10.0121717453
linear_acceleration_covariance: [0.01, 0.0, 0.0, 0.0, 0.01, 0.0, 0.0, 0.0, 0.01]
---
header: 
  seq: 1997
  stamp: 
    secs: 1639023926
    nsecs: 887588914
  frame_id: "imu"
orientation: 
  x: 0.97792083025
  y: -0.208803921938
  z: 0.00784576777369
  w: 0.0032038805075
orientation_covariance: [2.532250906179571e-07, 0.0, 0.0, 0.0, 2.530311082066545e-07, 0.0, 0.0, 0.0, 5.538947342205659e-06]
angular_velocity: 
  x: -0.000670331064612
  y: 0.00167702115141
  z: 0.000748863443732
angular_velocity_covariance: [0.01, 0.0, 0.0, 0.0, 0.01, 0.0, 0.0, 0.0, 0.01]
linear_acceleration: 
  x: -0.0704658329487
  y: 0.0373107269406
  z: 10.0082921982
linear_acceleration_covariance: [0.01, 0.0, 0.0, 0.0, 0.01, 0.0, 0.0, 0.0, 0.01]
---
header: 
  seq: 1998
  stamp: 
    secs: 1639023926
    nsecs: 912428696
  frame_id: "imu"
orientation: 
  x: 0.977921724319
  y: -0.208799809217
  z: 0.00784058962017
  w: 0.00321841053665
orientation_covariance: [2.525254681371853e-07, 0.0, 0.0, 0.0, 2.523365223968415e-07, 0.0, 0.0, 0.0, 5.551841656423252e-06]
angular_velocity: 
  x: -0.00101397512481
  y: 0.00191703671589
  z: 0.000133807086968
angular_velocity_covariance: [0.01, 0.0, 0.0, 0.0, 0.01, 0.0, 0.0, 0.0, 0.01]
linear_acceleration: 
  x: -0.0305913500488
  y: 0.0159512236714
  z: 10.0523176193
linear_acceleration_covariance: [0.01, 0.0, 0.0, 0.0, 0.01, 0.0, 0.0, 0.0, 0.01]
---
header: 
  seq: 1999
  stamp: 
    secs: 1639023926
    nsecs: 937759655
  frame_id: "imu"
orientation: 
  x: 0.97792339325
  y: -0.208792418242
  z: 0.00783164054155
  w: 0.00320829660632
orientation_covariance: [2.5147488199718413e-07, 0.0, 0.0, 0.0, 2.5129147946898265e-07, 0.0, 0.0, 0.0, 5.564755869831442e-06]
angular_velocity: 
  x: 8.46785696922e-05
  y: 0.00113519385923
  z: -0.000674079812597
angular_velocity_covariance: [0.01, 0.0, 0.0, 0.0, 0.01, 0.0, 0.0, 0.0, 0.01]
linear_acceleration: 
  x: 0.00309975910932
  y: -0.00804894883186
  z: 9.98464107513
linear_acceleration_covariance: [0.01, 0.0, 0.0, 0.0, 0.01, 0.0, 0.0, 0.0, 0.01]
---
header: 
  seq: 2000
  stamp: 
    secs: 1639023926
    nsecs: 962572771
  frame_id: "imu"
orientation: 
  x: 0.977924883366
  y: -0.208785548806
  z: 0.00783266779035
  w: 0.00319555052556
orientation_covariance: [2.5042212586083203e-07, 0.0, 0.0, 0.0, 2.5024388887017983e-07, 0.0, 0.0, 0.0, 5.577693684852155e-06]
angular_velocity: 
  x: -0.000715793285053
  y: -0.000659611367155
  z: -0.0010850034887
angular_velocity_covariance: [0.01, 0.0, 0.0, 0.0, 0.01, 0.0, 0.0, 0.0, 0.01]
linear_acceleration: 
  x: -0.0290050804615
  y: 0.0117184408009
  z: 10.0035057068
linear_acceleration_covariance: [0.01, 0.0, 0.0, 0.0, 0.01, 0.0, 0.0, 0.0, 0.01]
---
header: 
  seq: 2001
  stamp: 
    secs: 1639023926
    nsecs: 987616349
  frame_id: "imu"
orientation: 
  x: 0.977925598621
  y: -0.208781689405
  z: 0.00783960800618
  w: 0.00322393118404
orientation_covariance: [2.488913743382621e-07, 0.0, 0.0, 0.0, 2.4871926025859824e-07, 0.0, 0.0, 0.0, 5.590650211947382e-06]
angular_velocity: 
  x: -0.000835366314277
  y: -0.000569084077142
  z: -0.00019872240955
angular_velocity_covariance: [0.01, 0.0, 0.0, 0.0, 0.01, 0.0, 0.0, 0.0, 0.01]
linear_acceleration: 
  x: 0.0070488974452
  y: -0.00284195737913
  z: 10.0125331879
linear_acceleration_covariance: [0.01, 0.0, 0.0, 0.0, 0.01, 0.0, 0.0, 0.0, 0.01]
---
header: 
  seq: 2002
  stamp: 
    secs: 1639023927
    nsecs:  12531216
  frame_id: "imu"
orientation: 
  x: 0.977928936481
  y: -0.208765760064
  z: 0.00784414354712
  w: 0.00322213722393
orientation_covariance: [2.489783458783126e-07, 0.0, 0.0, 0.0, 2.4880980164292726e-07, 0.0, 0.0, 0.0, 5.60362792654051e-06]
angular_velocity: 
  x: -0.00163951574359
  y: 0.00109222950414
  z: 0.00034110606066
angular_velocity_covariance: [0.01, 0.0, 0.0, 0.0, 0.01, 0.0, 0.0, 0.0, 0.01]
linear_acceleration: 
  x: -0.0106605039909
  y: -0.00817394629121
  z: 9.99483966827
linear_acceleration_covariance: [0.01, 0.0, 0.0, 0.0, 0.01, 0.0, 0.0, 0.0, 0.01]
---
header: 
  seq: 2003
  stamp: 
    secs: 1639023927
    nsecs:  37614733
  frame_id: "imu"
orientation: 
  x: 0.977930128574
  y: -0.208760917187
  z: 0.00783113297075
  w: 0.00320313940756
orientation_covariance: [2.487712417109884e-07, 0.0, 0.0, 0.0, 2.4860630121009183e-07, 0.0, 0.0, 0.0, 5.616625617308793e-06]
angular_velocity: 
  x: 0.00189050042536
  y: -0.000451782165328
  z: -0.00163434853312
angular_velocity_covariance: [0.01, 0.0, 0.0, 0.0, 0.01, 0.0, 0.0, 0.0, 0.01]
linear_acceleration: 
  x: -0.000938041484915
  y: -0.0117489015684
  z: 10.0077600479
linear_acceleration_covariance: [0.01, 0.0, 0.0, 0.0, 0.01, 0.0, 0.0, 0.0, 0.01]
---
header: 
  seq: 2004
  stamp: 
    secs: 1639023927
    nsecs:  62665270
  frame_id: "imu"
orientation: 
  x: 0.977931797504
  y: -0.20875351131
  z: 0.00782734993845
  w: 0.0031990383286
orientation_covariance: [2.483404753794922e-07, 0.0, 0.0, 0.0, 2.4817943507509064e-07, 0.0, 0.0, 0.0, 5.629644535528319e-06]
angular_velocity: 
  x: 0.000608201255091
  y: -0.000515516498126
  z: -0.000515669584274
angular_velocity_covariance: [0.01, 0.0, 0.0, 0.0, 0.01, 0.0, 0.0, 0.0, 0.01]
linear_acceleration: 
  x: -0.00844882056117
  y: -0.00442644767463
  z: 10.0219974518
linear_acceleration_covariance: [0.01, 0.0, 0.0, 0.0, 0.01, 0.0, 0.0, 0.0, 0.01]
---
header: 
  seq: 2005
  stamp: 
    secs: 1639023927
    nsecs:  87577058
  frame_id: "imu"
orientation: 
  x: 0.977934062481
  y: -0.208742052317
  z: 0.00783350132406
  w: 0.0032208992634
orientation_covariance: [2.476848813070575e-07, 0.0, 0.0, 0.0, 2.4752812959592207e-07, 0.0, 0.0, 0.0, 5.642682231459989e-06]
angular_velocity: 
  x: -0.000376909883926
  y: 7.80739355832e-05
  z: 6.32896262687e-05
angular_velocity_covariance: [0.01, 0.0, 0.0, 0.0, 0.01, 0.0, 0.0, 0.0, 0.01]
linear_acceleration: 
  x: 0.0149507131428
  y: -0.00745900394395
  z: 9.99309921265
linear_acceleration_covariance: [0.01, 0.0, 0.0, 0.0, 0.01, 0.0, 0.0, 0.0, 0.01]
---
header: 
  seq: 2006
  stamp: 
    secs: 1639023927
    nsecs: 112525766
  frame_id: "imu"
orientation: 
  x: 0.977934837341
  y: -0.208737954497
  z: 0.00784690771252
  w: 0.00323714804836
orientation_covariance: [2.471411380271444e-07, 0.0, 0.0, 0.0, 2.469884360280672e-07, 0.0, 0.0, 0.0, 5.655743665987069e-06]
angular_velocity: 
  x: -0.00169029086828
  y: 0.000913965166546
  z: -0.000895862700418
angular_velocity_covariance: [0.01, 0.0, 0.0, 0.0, 0.01, 0.0, 0.0, 0.0, 0.01]
linear_acceleration: 
  x: 0.00582517124712
  y: 0.000505278352648
  z: 9.99501132965
linear_acceleration_covariance: [0.01, 0.0, 0.0, 0.0, 0.01, 0.0, 0.0, 0.0, 0.01]
---
header: 
  seq: 2007
  stamp: 
    secs: 1639023927
    nsecs: 137668383
  frame_id: "imu"
orientation: 
  x: 0.977934837341
  y: -0.20873837173
  z: 0.0078341383487
  w: 0.00322595471516
orientation_covariance: [2.4603673826765354e-07, 0.0, 0.0, 0.0, 2.4588876263269e-07, 0.0, 0.0, 0.0, 5.668822676936261e-06]
angular_velocity: 
  x: 0.000496754713822
  y: 0.000625922519248
  z: -0.000241186178755
angular_velocity_covariance: [0.01, 0.0, 0.0, 0.0, 0.01, 0.0, 0.0, 0.0, 0.01]
linear_acceleration: 
  x: -0.0155581049621
  y: -0.03117053397
  z: 10.0252990723
linear_acceleration_covariance: [0.01, 0.0, 0.0, 0.0, 0.01, 0.0, 0.0, 0.0, 0.01]
---
header: 
  seq: 2008
  stamp: 
    secs: 1639023927
    nsecs: 162557541
  frame_id: "imu"
orientation: 
  x: 0.977937042713
  y: -0.208728536963
  z: 0.00782559625804
  w: 0.00322285341099
orientation_covariance: [2.4465555170032465e-07, 0.0, 0.0, 0.0, 2.445122359090668e-07, 0.0, 0.0, 0.0, 5.681925472219744e-06]
angular_velocity: 
  x: 0.00203394028358
  y: -0.000649924797472
  z: 0.000628301815595
angular_velocity_covariance: [0.01, 0.0, 0.0, 0.0, 0.01, 0.0, 0.0, 0.0, 0.01]
linear_acceleration: 
  x: 0.016626259312
  y: -0.0245709251612
  z: 10.0057601929
linear_acceleration_covariance: [0.01, 0.0, 0.0, 0.0, 0.01, 0.0, 0.0, 0.0, 0.01]
---
header: 
  seq: 2009
  stamp: 
    secs: 1639023927
    nsecs: 187651851
  frame_id: "imu"
orientation: 
  x: 0.977936983109
  y: -0.208728685975
  z: 0.00783166754991
  w: 0.00322500453331
orientation_covariance: [2.430159328134167e-07, 0.0, 0.0, 0.0, 2.428775520689571e-07, 0.0, 0.0, 0.0, 5.695050840577679e-06]
angular_velocity: 
  x: -0.000887098256499
  y: 0.0002603289322
  z: -0.000994850648567
angular_velocity_covariance: [0.01, 0.0, 0.0, 0.0, 0.01, 0.0, 0.0, 0.0, 0.01]
linear_acceleration: 
  x: 0.0110993497074
  y: -0.0104763228446
  z: 9.99086856842
linear_acceleration_covariance: [0.01, 0.0, 0.0, 0.0, 0.01, 0.0, 0.0, 0.0, 0.01]
---
header: 
  seq: 2010
  stamp: 
    secs: 1639023927
    nsecs: 212519512
  frame_id: "imu"
orientation: 
  x: 0.977939128876
  y: -0.208717793226
  z: 0.00783163867891
  w: 0.00324873323552
orientation_covariance: [2.412412294042676e-07, 0.0, 0.0, 0.0, 2.4110792032603737e-07, 0.0, 0.0, 0.0, 5.708192594120557e-06]
angular_velocity: 
  x: -0.00114140927326
  y: -0.000121680546727
  z: 0.000159002855071
angular_velocity_covariance: [0.01, 0.0, 0.0, 0.0, 0.01, 0.0, 0.0, 0.0, 0.01]
linear_acceleration: 
  x: -0.0152019253001
  y: 0.00788823608309
  z: 10.0269002914
linear_acceleration_covariance: [0.01, 0.0, 0.0, 0.0, 0.01, 0.0, 0.0, 0.0, 0.01]
---
header: 
  seq: 2011
  stamp: 
    secs: 1639023927
    nsecs: 237650391
  frame_id: "imu"
orientation: 
  x: 0.977940261364
  y: -0.208713486791
  z: 0.00781614612788
  w: 0.00323429121636
orientation_covariance: [2.3949488905006154e-07, 0.0, 0.0, 0.0, 2.393662623786022e-07, 0.0, 0.0, 0.0, 5.721356957951727e-06]
angular_velocity: 
  x: -0.00022774770332
  y: 0.000485642493004
  z: -0.00113262922969
angular_velocity_covariance: [0.01, 0.0, 0.0, 0.0, 0.01, 0.0, 0.0, 0.0, 0.01]
linear_acceleration: 
  x: -0.00267192255706
  y: 0.00663924450055
  z: 10.0172796249
linear_acceleration_covariance: [0.01, 0.0, 0.0, 0.0, 0.01, 0.0, 0.0, 0.0, 0.01]
---
header: 
  seq: 2012
  stamp: 
    secs: 1639023927
    nsecs: 262570267
  frame_id: "imu"
orientation: 
  x: 0.977942824364
  y: -0.208700969815
  z: 0.00783650763333
  w: 0.00321774999611
orientation_covariance: [2.3766435700411648e-07, 0.0, 0.0, 0.0, 2.375405008819851e-07, 0.0, 0.0, 0.0, 5.734537729876235e-06]
angular_velocity: 
  x: 0.000432153436122
  y: -0.000257715757471
  z: 0.000199911461095
angular_velocity_covariance: [0.01, 0.0, 0.0, 0.0, 0.01, 0.0, 0.0, 0.0, 0.01]
linear_acceleration: 
  x: -0.033447060734
  y: 0.0200396999717
  z: 9.98501968384
linear_acceleration_covariance: [0.01, 0.0, 0.0, 0.0, 0.01, 0.0, 0.0, 0.0, 0.01]
---
header: 
  seq: 2013
  stamp: 
    secs: 1639023927
    nsecs: 287520520
  frame_id: "imu"
orientation: 
  x: 0.977944135666
  y: -0.208694636822
  z: 0.00783912092447
  w: 0.00323783350177
orientation_covariance: [2.3541508948047e-07, 0.0, 0.0, 0.0, 2.352962994054795e-07, 0.0, 0.0, 0.0, 5.747746137439111e-06]
angular_velocity: 
  x: -0.00148766406346
  y: -0.00034090311965
  z: -0.00117132486776
angular_velocity_covariance: [0.01, 0.0, 0.0, 0.0, 0.01, 0.0, 0.0, 0.0, 0.01]
linear_acceleration: 
  x: -0.015253786929
  y: 0.0277772732079
  z: 10.0464849472
linear_acceleration_covariance: [0.01, 0.0, 0.0, 0.0, 0.01, 0.0, 0.0, 0.0, 0.01]
---
header: 
  seq: 2014
  stamp: 
    secs: 1639023927
    nsecs: 312429697
  frame_id: "imu"
orientation: 
  x: 0.977946162224
  y: -0.208685278893
  z: 0.00782496668398
  w: 0.00324810761958
orientation_covariance: [2.3399111537387578e-07, 0.0, 0.0, 0.0, 2.3387626969941611e-07, 0.0, 0.0, 0.0, 5.7609697390252365e-06]
angular_velocity: 
  x: -0.000701347074937
  y: 0.00155770953279
  z: -0.000176614557859
angular_velocity_covariance: [0.01, 0.0, 0.0, 0.0, 0.01, 0.0, 0.0, 0.0, 0.01]
linear_acceleration: 
  x: 0.0225083641708
  y: 0.00162941555027
  z: 10.0208120346
linear_acceleration_covariance: [0.01, 0.0, 0.0, 0.0, 0.01, 0.0, 0.0, 0.0, 0.01]
---
header: 
  seq: 2015
  stamp: 
    secs: 1639023927
    nsecs: 337229373
  frame_id: "imu"
orientation: 
  x: 0.977947950363
  y: -0.208677873015
  z: 0.00781679153442
  w: 0.00322115770541
orientation_covariance: [2.3206236749170232e-07, 0.0, 0.0, 0.0, 2.3195178514064288e-07, 0.0, 0.0, 0.0, 5.774216034010112e-06]
angular_velocity: 
  x: 0.000211166596273
  y: -0.000218002751353
  z: -0.000866050191689
angular_velocity_covariance: [0.01, 0.0, 0.0, 0.0, 0.01, 0.0, 0.0, 0.0, 0.01]
linear_acceleration: 
  x: 0.0461161583662
  y: -0.00947346538305
  z: 9.98733329773
linear_acceleration_covariance: [0.01, 0.0, 0.0, 0.0, 0.01, 0.0, 0.0, 0.0, 0.01]
---
header: 
  seq: 2016
  stamp: 
    secs: 1639023927
    nsecs: 362461380
  frame_id: "imu"
orientation: 
  x: 0.977949202061
  y: -0.208672240376
  z: 0.00781566184014
  w: 0.00320287677459
orientation_covariance: [2.311936712331912e-07, 0.0, 0.0, 0.0, 2.3108626532643966e-07, 0.0, 0.0, 0.0, 5.787485048214388e-06]
angular_velocity: 
  x: 0.00106099853292
  y: 0.000407575134886
  z: -0.000896046520211
angular_velocity_covariance: [0.01, 0.0, 0.0, 0.0, 0.01, 0.0, 0.0, 0.0, 0.01]
linear_acceleration: 
  x: -0.0350704193115
  y: 0.0527904443443
  z: 10.043170929
linear_acceleration_covariance: [0.01, 0.0, 0.0, 0.0, 0.01, 0.0, 0.0, 0.0, 0.01]
---
header: 
  seq: 2017
  stamp: 
    secs: 1639023927
    nsecs: 387541224
  frame_id: "imu"
orientation: 
  x: 0.977950870991
  y: -0.208664283156
  z: 0.00781819224358
  w: 0.00322123570368
orientation_covariance: [2.3060321633703547e-07, 0.0, 0.0, 0.0, 2.3049885073095186e-07, 0.0, 0.0, 0.0, 5.800774301938159e-06]
angular_velocity: 
  x: -0.000549235730432
  y: -0.000412061956013
  z: 0.000655960175209
angular_velocity_covariance: [0.01, 0.0, 0.0, 0.0, 0.01, 0.0, 0.0, 0.0, 0.01]
linear_acceleration: 
  x: -0.00565714808181
  y: 0.00998602434993
  z: 10.0015144348
linear_acceleration_covariance: [0.01, 0.0, 0.0, 0.0, 0.01, 0.0, 0.0, 0.0, 0.01]
---
header: 
  seq: 2018
  stamp: 
    secs: 1639023927
    nsecs: 412608810
  frame_id: "imu"
orientation: 
  x: 0.977952003479
  y: -0.208658471704
  z: 0.00782183557749
  w: 0.00323242507875
orientation_covariance: [2.2997656634477344e-07, 0.0, 0.0, 0.0, 2.2987517942120916e-07, 0.0, 0.0, 0.0, 5.814080049800569e-06]
angular_velocity: 
  x: -0.00122434191871
  y: 0.000887210713699
  z: -0.00072018703213
angular_velocity_covariance: [0.01, 0.0, 0.0, 0.0, 0.01, 0.0, 0.0, 0.0, 0.01]
linear_acceleration: 
  x: 0.018429512158
  y: 0.00301327463239
  z: 9.98502254486
linear_acceleration_covariance: [0.01, 0.0, 0.0, 0.0, 0.01, 0.0, 0.0, 0.0, 0.01]
---
header: 
  seq: 2019
  stamp: 
    secs: 1639023927
    nsecs: 437523456
  frame_id: "imu"
orientation: 
  x: 0.9779535532
  y: -0.208651825786
  z: 0.00780411157757
  w: 0.00321716233157
orientation_covariance: [2.295004726626108e-07, 0.0, 0.0, 0.0, 2.2940180660648611e-07, 0.0, 0.0, 0.0, 5.827408574308813e-06]
angular_velocity: 
  x: 0.000259093299974
  y: -0.00162830518093
  z: -0.000621653511189
angular_velocity_covariance: [0.01, 0.0, 0.0, 0.0, 0.01, 0.0, 0.0, 0.0, 0.01]
linear_acceleration: 
  x: -0.0326130948961
  y: -0.0072189248167
  z: 10.0105619431
linear_acceleration_covariance: [0.01, 0.0, 0.0, 0.0, 0.01, 0.0, 0.0, 0.0, 0.01]
---
header: 
  seq: 2020
  stamp: 
    secs: 1639023927
    nsecs: 462624502
  frame_id: "imu"
orientation: 
  x: 0.977952957153
  y: -0.208654627204
  z: 0.00780705735087
  w: 0.00320787890814
orientation_covariance: [2.2879666479363282e-07, 0.0, 0.0, 0.0, 2.2870085529682801e-07, 0.0, 0.0, 0.0, 5.840758644247217e-06]
angular_velocity: 
  x: 0.000956366246101
  y: -0.00113526475616
  z: 0.00014706775255
angular_velocity_covariance: [0.01, 0.0, 0.0, 0.0, 0.01, 0.0, 0.0, 0.0, 0.01]
linear_acceleration: 
  x: 0.0181377846748
  y: -0.00197806186043
  z: 9.99599456787
linear_acceleration_covariance: [0.01, 0.0, 0.0, 0.0, 0.01, 0.0, 0.0, 0.0, 0.01]
---
header: 
  seq: 2021
  stamp: 
    secs: 1639023927
    nsecs: 487608892
  frame_id: "imu"
orientation: 
  x: 0.977953910828
  y: -0.208649456501
  z: 0.00782372895628
  w: 0.0032075215131
orientation_covariance: [2.278516696526476e-07, 0.0, 0.0, 0.0, 2.2775875780159353e-07, 0.0, 0.0, 0.0, 5.854130281177631e-06]
angular_velocity: 
  x: 0.000537976564374
  y: -0.000815111387055
  z: -0.000202455703402
angular_velocity_covariance: [0.01, 0.0, 0.0, 0.0, 0.01, 0.0, 0.0, 0.0, 0.01]
linear_acceleration: 
  x: 0.0112782334909
  y: -0.0314509980381
  z: 9.98542881012
linear_acceleration_covariance: [0.01, 0.0, 0.0, 0.0, 0.01, 0.0, 0.0, 0.0, 0.01]
---
header: 
  seq: 2022
  stamp: 
    secs: 1639023927
    nsecs: 512528099
  frame_id: "imu"
orientation: 
  x: 0.977955460548
  y: -0.208641692996
  z: 0.00783389061689
  w: 0.00323298131116
orientation_covariance: [2.2674435575071773e-07, 0.0, 0.0, 0.0, 2.266546415591747e-07, 0.0, 0.0, 0.0, 5.867522246717526e-06]
angular_velocity: 
  x: -0.000738813600037
  y: 0.00210946658626
  z: 0.000328975816956
angular_velocity_covariance: [0.01, 0.0, 0.0, 0.0, 0.01, 0.0, 0.0, 0.0, 0.01]
linear_acceleration: 
  x: 0.00754578551278
  y: 0.00281680212356
  z: 10.0277414322
linear_acceleration_covariance: [0.01, 0.0, 0.0, 0.0, 0.01, 0.0, 0.0, 0.0, 0.01]
---
header: 
  seq: 2023
  stamp: 
    secs: 1639023927
    nsecs: 537750898
  frame_id: "imu"
orientation: 
  x: 0.977958083153
  y: -0.208630725741
  z: 0.00780264427885
  w: 0.00322000216693
orientation_covariance: [2.2564576165266074e-07, 0.0, 0.0, 0.0, 2.2555876629844342e-07, 0.0, 0.0, 0.0, 5.880933296737379e-06]
angular_velocity: 
  x: 0.000633732182905
  y: -0.00142424926162
  z: -0.00160177156795
angular_velocity_covariance: [0.01, 0.0, 0.0, 0.0, 0.01, 0.0, 0.0, 0.0, 0.01]
linear_acceleration: 
  x: 0.00669533060864
  y: -0.012910024263
  z: 10.0245523453
linear_acceleration_covariance: [0.01, 0.0, 0.0, 0.0, 0.01, 0.0, 0.0, 0.0, 0.01]
---
header: 
  seq: 2024
  stamp: 
    secs: 1639023927
    nsecs: 562587620
  frame_id: "imu"
orientation: 
  x: 0.977959752083
  y: -0.208623096347
  z: 0.00780553324148
  w: 0.00320662511513
orientation_covariance: [2.2428319111575407e-07, 0.0, 0.0, 0.0, 2.2419922958662248e-07, 0.0, 0.0, 0.0, 5.8943659698552335e-06]
angular_velocity: 
  x: 0.00120507541578
  y: -0.000787673925515
  z: 0.000283061119262
angular_velocity_covariance: [0.01, 0.0, 0.0, 0.0, 0.01, 0.0, 0.0, 0.0, 0.01]
linear_acceleration: 
  x: 0.0232151187956
  y: 0.0232553612441
  z: 10.0145902634
linear_acceleration_covariance: [0.01, 0.0, 0.0, 0.0, 0.01, 0.0, 0.0, 0.0, 0.01]
---
header: 
  seq: 2025
  stamp: 
    secs: 1639023927
    nsecs: 587538377
  frame_id: "imu"
orientation: 
  x: 0.977962017059
  y: -0.208612203598
  z: 0.00781003385782
  w: 0.00322340452112
orientation_covariance: [2.23051549692523e-07, 0.0, 0.0, 0.0, 2.2297058217503347e-07, 0.0, 0.0, 0.0, 5.907820287667442e-06]
angular_velocity: 
  x: -0.00208769575693
  y: 8.83073662408e-05
  z: 0.000221678375965
angular_velocity_covariance: [0.01, 0.0, 0.0, 0.0, 0.01, 0.0, 0.0, 0.0, 0.01]
linear_acceleration: 
  x: -0.0324148386717
  y: 0.060843706131
  z: 10.0165014267
linear_acceleration_covariance: [0.01, 0.0, 0.0, 0.0, 0.01, 0.0, 0.0, 0.0, 0.01]
---
header: 
  seq: 2026
  stamp: 
    secs: 1639023927
    nsecs: 612637474
  frame_id: "imu"
orientation: 
  x: 0.97796279192
  y: -0.208607956767
  z: 0.00781383737922
  w: 0.00322352908552
orientation_covariance: [2.2219533520553745e-07, 0.0, 0.0, 0.0, 2.221167908141839e-07, 0.0, 0.0, 0.0, 5.9212924746365825e-06]
angular_velocity: 
  x: -0.00106219213922
  y: 0.00166772957891
  z: -0.00120011053514
angular_velocity_covariance: [0.01, 0.0, 0.0, 0.0, 0.01, 0.0, 0.0, 0.0, 0.01]
linear_acceleration: 
  x: -0.00734836049378
  y: -0.0108307320625
  z: 10.0040922165
linear_acceleration_covariance: [0.01, 0.0, 0.0, 0.0, 0.01, 0.0, 0.0, 0.0, 0.01]
---
header: 
  seq: 2027
  stamp: 
    secs: 1639023927
    nsecs: 637673166
  frame_id: "imu"
orientation: 
  x: 0.977965474129
  y: -0.208596289158
  z: 0.00780159328133
  w: 0.00321127311327
orientation_covariance: [2.2142764909688309e-07, 0.0, 0.0, 0.0, 2.213513818111228e-07, 0.0, 0.0, 0.0, 5.934786340873706e-06]
angular_velocity: 
  x: 0.000210456142668
  y: 0.00213377713226
  z: 0.000380887329811
angular_velocity_covariance: [0.01, 0.0, 0.0, 0.0, 0.01, 0.0, 0.0, 0.0, 0.01]
linear_acceleration: 
  x: 0.0299915187061
  y: -0.0122547037899
  z: 10.0210514069
linear_acceleration_covariance: [0.01, 0.0, 0.0, 0.0, 0.01, 0.0, 0.0, 0.0, 0.01]
---
header: 
  seq: 2028
  stamp: 
    secs: 1639023927
    nsecs: 662566831
  frame_id: "imu"
orientation: 
  x: 0.977967083454
  y: -0.208589047194
  z: 0.00780789414421
  w: 0.003189092502
orientation_covariance: [2.207548521918816e-07, 0.0, 0.0, 0.0, 2.2068080837261155e-07, 0.0, 0.0, 0.0, 5.948300639401709e-06]
angular_velocity: 
  x: 0.000288533134153
  y: -0.000327870016918
  z: -0.000469481630716
angular_velocity_covariance: [0.01, 0.0, 0.0, 0.0, 0.01, 0.0, 0.0, 0.0, 0.01]
linear_acceleration: 
  x: 0.00196437491104
  y: 0.0221342146397
  z: 10.0252723694
linear_acceleration_covariance: [0.01, 0.0, 0.0, 0.0, 0.01, 0.0, 0.0, 0.0, 0.01]
---
header: 
  seq: 2029
  stamp: 
    secs: 1639023927
    nsecs: 687639012
  frame_id: "imu"
orientation: 
  x: 0.977969348431
  y: -0.208577826619
  z: 0.00781708117574
  w: 0.00320784840733
orientation_covariance: [2.2000469536202423e-07, 0.0, 0.0, 0.0, 2.199329118847157e-07, 0.0, 0.0, 0.0, 5.961836657563903e-06]
angular_velocity: 
  x: 8.60292784637e-05
  y: 0.00036438886309
  z: -0.000146300939377
angular_velocity_covariance: [0.01, 0.0, 0.0, 0.0, 0.01, 0.0, 0.0, 0.0, 0.01]
linear_acceleration: 
  x: -0.027240857482
  y: -0.00159367499873
  z: 10.0309581757
linear_acceleration_covariance: [0.01, 0.0, 0.0, 0.0, 0.01, 0.0, 0.0, 0.0, 0.01]
---
header: 
  seq: 2030
  stamp: 
    secs: 1639023927
    nsecs: 712521606
  frame_id: "imu"
orientation: 
  x: 0.977971255779
  y: -0.208568170667
  z: 0.00782379880548
  w: 0.00322062382475
orientation_covariance: [2.1928282063729716e-07, 0.0, 0.0, 0.0, 2.1921337728286023e-07, 0.0, 0.0, 0.0, 5.975393145515709e-06]
angular_velocity: 
  x: -0.00225805165246
  y: 0.00275465706363
  z: -0.00122335075866
angular_velocity_covariance: [0.01, 0.0, 0.0, 0.0, 0.01, 0.0, 0.0, 0.0, 0.01]
linear_acceleration: 
  x: -0.0244167484343
  y: -0.0124236531556
  z: 10.0079584122
linear_acceleration_covariance: [0.01, 0.0, 0.0, 0.0, 0.01, 0.0, 0.0, 0.0, 0.01]
---
header: 
  seq: 2031
  stamp: 
    secs: 1639023927
    nsecs: 737632575
  frame_id: "imu"
orientation: 
  x: 0.977972507477
  y: -0.20856359601
  z: 0.00780086172745
  w: 0.00320007302798
orientation_covariance: [2.194968824932677e-07, 0.0, 0.0, 0.0, 2.1942877580332015e-07, 0.0, 0.0, 0.0, 5.9889688476477065e-06]
angular_velocity: 
  x: 0.00149006547872
  y: -0.000393268914195
  z: -0.00139820063487
angular_velocity_covariance: [0.01, 0.0, 0.0, 0.0, 0.01, 0.0, 0.0, 0.0, 0.01]
linear_acceleration: 
  x: -0.0475181490183
  y: 0.0163572188467
  z: 10.017996788
linear_acceleration_covariance: [0.01, 0.0, 0.0, 0.0, 0.01, 0.0, 0.0, 0.0, 0.01]
---
header: 
  seq: 2032
  stamp: 
    secs: 1639023927
    nsecs: 762202636
  frame_id: "imu"
orientation: 
  x: 0.977973461151
  y: -0.208559110761
  z: 0.00780007429421
  w: 0.00320483744144
orientation_covariance: [2.1950120805138188e-07, 0.0, 0.0, 0.0, 2.194347453768254e-07, 0.0, 0.0, 0.0, 6.002567600065294e-06]
angular_velocity: 
  x: 0.00225448259152
  y: -0.00146537413821
  z: -0.000134111687657
angular_velocity_covariance: [0.01, 0.0, 0.0, 0.0, 0.01, 0.0, 0.0, 0.0, 0.01]
linear_acceleration: 
  x: 0.0265627857298
  y: 0.0117948912084
  z: 10.0347623825
linear_acceleration_covariance: [0.01, 0.0, 0.0, 0.0, 0.01, 0.0, 0.0, 0.0, 0.01]
---
header: 
  seq: 2033
  stamp: 
    secs: 1639023927
    nsecs: 787743281
  frame_id: "imu"
orientation: 
  x: 0.977976858616
  y: -0.208543747663
  z: 0.00778156192973
  w: 0.00321475672536
orientation_covariance: [2.1952475567510245e-07, 0.0, 0.0, 0.0, 2.1945990375733515e-07, 0.0, 0.0, 0.0, 6.016186877134071e-06]
angular_velocity: 
  x: -0.00138780346606
  y: 0.000473267806228
  z: -0.000643377599772
angular_velocity_covariance: [0.01, 0.0, 0.0, 0.0, 0.01, 0.0, 0.0, 0.0, 0.01]
linear_acceleration: 
  x: 0.0076084532775
  y: -0.0104720899835
  z: 9.95816230774
linear_acceleration_covariance: [0.01, 0.0, 0.0, 0.0, 0.01, 0.0, 0.0, 0.0, 0.01]
---
header: 
  seq: 2034
  stamp: 
    secs: 1639023927
    nsecs: 812512984
  frame_id: "imu"
orientation: 
  x: 0.977989435196
  y: -0.20848493278
  z: 0.00778157403693
  w: 0.00321026472375
orientation_covariance: [2.2156638949698665e-07, 0.0, 0.0, 0.0, 2.2150175689085132e-07, 0.0, 0.0, 0.0, 6.029831805240702e-06]
angular_velocity: 
  x: -0.00195642164908
  y: -0.00813614018261
  z: -0.00198769755661
angular_velocity_covariance: [0.01, 0.0, 0.0, 0.0, 0.01, 0.0, 0.0, 0.0, 0.01]
linear_acceleration: 
  x: 0.0583756640553
  y: -0.0224424377084
  z: 10.0646944046
linear_acceleration_covariance: [0.01, 0.0, 0.0, 0.0, 0.01, 0.0, 0.0, 0.0, 0.01]
---
header: 
  seq: 2035
  stamp: 
    secs: 1639023927
    nsecs: 837544314
  frame_id: "imu"
orientation: 
  x: 0.97801733017
  y: -0.208359017968
  z: 0.00765260029584
  w: 0.00318135390989
orientation_covariance: [2.240047652510682e-07, 0.0, 0.0, 0.0, 2.2394017793351746e-07, 0.0, 0.0, 0.0, 6.043490910710402e-06]
angular_velocity: 
  x: -0.00110144540668
  y: 0.00303668575361
  z: -0.00590995373204
angular_velocity_covariance: [0.01, 0.0, 0.0, 0.0, 0.01, 0.0, 0.0, 0.0, 0.01]
linear_acceleration: 
  x: 0.05933444947
  y: 0.0029651382938
  z: 10.0720119476
linear_acceleration_covariance: [0.01, 0.0, 0.0, 0.0, 0.01, 0.0, 0.0, 0.0, 0.01]
---
header: 
  seq: 2036
  stamp: 
    secs: 1639023927
    nsecs: 862714795
  frame_id: "imu"
orientation: 
  x: 0.978016674519
  y: -0.208358839154
  z: 0.0077357054688
  w: 0.00319024990313
orientation_covariance: [2.26599515454199e-07, 0.0, 0.0, 0.0, 2.265348645747381e-07, 0.0, 0.0, 0.0, 6.057173150285541e-06]
angular_velocity: 
  x: 0.00900957174599
  y: -0.00700533716008
  z: -0.00959795154631
angular_velocity_covariance: [0.01, 0.0, 0.0, 0.0, 0.01, 0.0, 0.0, 0.0, 0.01]
linear_acceleration: 
  x: 0.418552517891
  y: -0.0367938503623
  z: 9.82905292511
linear_acceleration_covariance: [0.01, 0.0, 0.0, 0.0, 0.01, 0.0, 0.0, 0.0, 0.01]
---
header: 
  seq: 2037
  stamp: 
    secs: 1639023927
    nsecs: 887648767
  frame_id: "imu"
orientation: 
  x: 0.978023946285
  y: -0.208333298564
  z: 0.00754434987903
  w: 0.00306795490906
orientation_covariance: [2.2921611784083053e-07, 0.0, 0.0, 0.0, 2.29151561599624e-07, 0.0, 0.0, 0.0, 6.070875986801766e-06]
angular_velocity: 
  x: -0.016959277913
  y: -0.00411292538047
  z: 0.00717358384281
angular_velocity_covariance: [0.01, 0.0, 0.0, 0.0, 0.01, 0.0, 0.0, 0.0, 0.01]
linear_acceleration: 
  x: -0.0346367955208
  y: 0.065094448626
  z: 10.1413793564
linear_acceleration_covariance: [0.01, 0.0, 0.0, 0.0, 0.01, 0.0, 0.0, 0.0, 0.01]
---
header: 
  seq: 2038
  stamp: 
    secs: 1639023927
    nsecs: 912191844
  frame_id: "imu"
orientation: 
  x: 0.978064835072
  y: -0.208136379719
  z: 0.00767116248608
  w: 0.00311741605401
orientation_covariance: [2.318741333138617e-07, 0.0, 0.0, 0.0, 2.318094542583683e-07, 0.0, 0.0, 0.0, 6.084600720675182e-06]
angular_velocity: 
  x: 0.00879869796336
  y: -0.00509217986837
  z: -0.013259973377
angular_velocity_covariance: [0.01, 0.0, 0.0, 0.0, 0.01, 0.0, 0.0, 0.0, 0.01]
linear_acceleration: 
  x: 0.54641520977
  y: -0.0923842787743
  z: 9.99736976624
linear_acceleration_covariance: [0.01, 0.0, 0.0, 0.0, 0.01, 0.0, 0.0, 0.0, 0.01]
---
header: 
  seq: 2039
  stamp: 
    secs: 1639023927
    nsecs: 937701139
  frame_id: "imu"
orientation: 
  x: 0.978063762188
  y: -0.208150610328
  z: 0.00744697125629
  w: 0.00303265941329
