header: 
  seq: 0
  stamp: 
    secs: 1639034714
    nsecs: 730951309
  frame_id: "map"
pose: 
  pose: 
    position: 
      x: 0.041308605491
      y: 0.0182382814567
      z: 0.0
    orientation: 
      x: 0.0
      y: 0.0
      z: -0.00399870438671
      w: 0.99999200515
  covariance: [0.179617452412778, -0.0003047905732631831, 0.0, 0.0, 0.0, 0.0, -0.0003047905732631829, 0.2229144105599249, 0.0, 0.0, 0.0, 0.0, 0.0, 0.0, 0.0, 0.0, 0.0, 0.0, 0.0, 0.0, 0.0, 0.0, 0.0, 0.0, 0.0, 0.0, 0.0, 0.0, 0.0, 0.0, 0.0, 0.0, 0.0, 0.0, 0.0, 0.06853345502916648]
---
header: 
  seq: 1
  stamp: 
    secs: 1639034773
    nsecs: 427145958
  frame_id: "map"
pose: 
  pose: 
    position: 
      x: 0.248083645961
      y: 0.0250285627925
      z: 0.0
    orientation: 
      x: 0.0
      y: 0.0
      z: -0.0225370973561
      w: 0.999746007365
  covariance: [0.1443974001491597, -0.0006486193171533847, 0.0, 0.0, 0.0, 0.0, -0.0006486193171533865, 0.18543322694495326, 0.0, 0.0, 0.0, 0.0, 0.0, 0.0, 0.0, 0.0, 0.0, 0.0, 0.0, 0.0, 0.0, 0.0, 0.0, 0.0, 0.0, 0.0, 0.0, 0.0, 0.0, 0.0, 0.0, 0.0, 0.0, 0.0, 0.0, 0.06251222339352956]
---
header: 
  seq: 2
  stamp: 
    secs: 1639034774
    nsecs: 738315821
  frame_id: "map"
pose: 
  pose: 
    position: 
      x: 0.442815830949
      y: 0.0208363562838
      z: 0.0
    orientation: 
      x: 0.0
      y: 0.0
      z: -0.0405157197632
      w: 0.999178901124
  covariance: [0.11344331696615137, -0.006673034883951467, 0.0, 0.0, 0.0, 0.0, -0.006673034883951469, 0.17548876426667043, 0.0, 0.0, 0.0, 0.0, 0.0, 0.0, 0.0, 0.0, 0.0, 0.0, 0.0, 0.0, 0.0, 0.0, 0.0, 0.0, 0.0, 0.0, 0.0, 0.0, 0.0, 0.0, 0.0, 0.0, 0.0, 0.0, 0.0, 0.05625358411436793]
---
header: 
  seq: 3
  stamp: 
    secs: 1639034775
    nsecs: 746865749
  frame_id: "map"
pose: 
  pose: 
    position: 
      x: 0.632058132877
      y: 0.035140248481
      z: 0.0
    orientation: 
      x: 0.0
      y: 0.0
      z: -0.0123431474333
      w: 0.999923820454
  covariance: [0.091432045384507, -0.007419688014663571, 0.0, 0.0, 0.0, 0.0, -0.007419688014663566, 0.1554871807195785, 0.0, 0.0, 0.0, 0.0, 0.0, 0.0, 0.0, 0.0, 0.0, 0.0, 0.0, 0.0, 0.0, 0.0, 0.0, 0.0, 0.0, 0.0, 0.0, 0.0, 0.0, 0.0, 0.0, 0.0, 0.0, 0.0, 0.0, 0.047348423315245726]
---
header: 
  seq: 4
  stamp: 
    secs: 1639034776
    nsecs: 957207680
  frame_id: "map"
pose: 
  pose: 
    position: 
      x: 0.841181343089
      y: 0.0751337145367
      z: 0.0
    orientation: 
      x: 0.0
      y: 0.0
      z: -0.008789622576
      w: 0.999961370521
  covariance: [0.07382680121466989, -0.005953673698282161, 0.0, 0.0, 0.0, 0.0, -0.005953673698282168, 0.13702381800790503, 0.0, 0.0, 0.0, 0.0, 0.0, 0.0, 0.0, 0.0, 0.0, 0.0, 0.0, 0.0, 0.0, 0.0, 0.0, 0.0, 0.0, 0.0, 0.0, 0.0, 0.0, 0.0, 0.0, 0.0, 0.0, 0.0, 0.0, 0.039583619117924546]
---
header: 
  seq: 5
  stamp: 
    secs: 1639034778
    nsecs: 167459249
  frame_id: "map"
pose: 
  pose: 
    position: 
      x: 1.05141821787
      y: 0.115157233501
      z: 0.0
    orientation: 
      x: 0.0
      y: 0.0
      z: -0.00735725298557
      w: 0.999972935048
  covariance: [0.05084512609618064, -0.003371577276399071, 0.0, 0.0, 0.0, 0.0, -0.003371577276399071, 0.11325470113527997, 0.0, 0.0, 0.0, 0.0, 0.0, 0.0, 0.0, 0.0, 0.0, 0.0, 0.0, 0.0, 0.0, 0.0, 0.0, 0.0, 0.0, 0.0, 0.0, 0.0, 0.0, 0.0, 0.0, 0.0, 0.0, 0.0, 0.0, 0.029798070654388]
---
header: 
  seq: 6
  stamp: 
    secs: 1639034779
    nsecs: 377799034
  frame_id: "map"
pose: 
  pose: 
    position: 
      x: 1.27597819267
      y: 0.143880439165
      z: 0.0
    orientation: 
      x: 0.0
      y: 0.0
      z: -0.00704819041586
      w: 0.999975161197
  covariance: [0.03768451490181368, -0.001889491729706233, 0.0, 0.0, 0.0, 0.0, -0.0018894917297062608, 0.09978445327761568, 0.0, 0.0, 0.0, 0.0, 0.0, 0.0, 0.0, 0.0, 0.0, 0.0, 0.0, 0.0, 0.0, 0.0, 0.0, 0.0, 0.0, 0.0, 0.0, 0.0, 0.0, 0.0, 0.0, 0.0, 0.0, 0.0, 0.0, 0.023742834588097162]
---
header: 
  seq: 7
  stamp: 
    secs: 1639034780
    nsecs: 588067770
  frame_id: "map"
pose: 
  pose: 
    position: 
      x: 1.48960668587
      y: 0.161429008485
      z: 0.0
    orientation: 
      x: 0.0
      y: 0.0
      z: -0.0174553745592
      w: 0.999847643343
  covariance: [0.02633428531291271, 0.00027779637817229585, 0.0, 0.0, 0.0, 0.0, 0.00027779637817229585, 0.07720462527222408, 0.0, 0.0, 0.0, 0.0, 0.0, 0.0, 0.0, 0.0, 0.0, 0.0, 0.0, 0.0, 0.0, 0.0, 0.0, 0.0, 0.0, 0.0, 0.0, 0.0, 0.0, 0.0, 0.0, 0.0, 0.0, 0.0, 0.0, 0.018067838597796537]
---
header: 
  seq: 8
  stamp: 
    secs: 1639034781
    nsecs: 798444271
  frame_id: "map"
pose: 
  pose: 
    position: 
      x: 1.70436442387
      y: 0.162615638397
      z: 0.0
    orientation: 
      x: 0.0
      y: 0.0
      z: -0.0478974303698
      w: 0.998852259428
  covariance: [0.020244828918311253, -0.00035850389863700816, 0.0, 0.0, 0.0, 0.0, -0.00035850389863700816, 0.05731843372791935, 0.0, 0.0, 0.0, 0.0, 0.0, 0.0, 0.0, 0.0, 0.0, 0.0, 0.0, 0.0, 0.0, 0.0, 0.0, 0.0, 0.0, 0.0, 0.0, 0.0, 0.0, 0.0, 0.0, 0.0, 0.0, 0.0, 0.0, 0.013753483194813258]
---
header: 
  seq: 9
  stamp: 
    secs: 1639034782
    nsecs: 907887459
  frame_id: "map"
pose: 
  pose: 
    position: 
      x: 1.90755813353
      y: 0.154378776813
      z: 0.0
    orientation: 
      x: 0.0
      y: 0.0
      z: -0.0659496041566
      w: 0.997822955094
  covariance: [0.014992477753896338, 0.0009658366213316505, 0.0, 0.0, 0.0, 0.0, 0.0009658366213316505, 0.04466063605967834, 0.0, 0.0, 0.0, 0.0, 0.0, 0.0, 0.0, 0.0, 0.0, 0.0, 0.0, 0.0, 0.0, 0.0, 0.0, 0.0, 0.0, 0.0, 0.0, 0.0, 0.0, 0.0, 0.0, 0.0, 0.0, 0.0, 0.0, 0.010452401916662683]
---
header: 
  seq: 10
  stamp: 
    secs: 1639034784
    nsecs: 118169069
  frame_id: "map"
pose: 
  pose: 
    position: 
      x: 2.11241700872
      y: 0.13422125221
      z: 0.0
    orientation: 
      x: 0.0
      y: 0.0
      z: -0.0846347951631
      w: 0.996412038992
  covariance: [0.010814701607837485, 0.002533600414629522, 0.0, 0.0, 0.0, 0.0, 0.002533600414629522, 0.033706099687178026, 0.0, 0.0, 0.0, 0.0, 0.0, 0.0, 0.0, 0.0, 0.0, 0.0, 0.0, 0.0, 0.0, 0.0, 0.0, 0.0, 0.0, 0.0, 0.0, 0.0, 0.0, 0.0, 0.0, 0.0, 0.0, 0.0, 0.0, 0.00800788217903623]
---
header: 
  seq: 11
  stamp: 
    secs: 1639034785
    nsecs: 429330826
  frame_id: "map"
pose: 
  pose: 
    position: 
      x: 2.3139085944
      y: 0.10073736294
      z: 0.0
    orientation: 
      x: 0.0
      y: 0.0
      z: -0.113969176242
      w: 0.99348428617
  covariance: [0.008418066095893018, -7.676414361881823e-05, 0.0, 0.0, 0.0, 0.0, -7.676414361879047e-05, 0.024999179235247325, 0.0, 0.0, 0.0, 0.0, 0.0, 0.0, 0.0, 0.0, 0.0, 0.0, 0.0, 0.0, 0.0, 0.0, 0.0, 0.0, 0.0, 0.0, 0.0, 0.0, 0.0, 0.0, 0.0, 0.0, 0.0, 0.0, 0.0, 0.006185682762304175]
---
header: 
  seq: 12
  stamp: 
    secs: 1639034787
    nsecs: 244815826
  frame_id: "map"
pose: 
  pose: 
    position: 
      x: 2.51298099535
      y: 0.038682121282
      z: 0.0
    orientation: 
      x: 0.0
      y: 0.0
      z: -0.170064883016
      w: 0.985432867102
  covariance: [0.006390421059306206, 0.001036787484446175, 0.0, 0.0, 0.0, 0.0, 0.0010367874844462166, 0.022126710786298416, 0.0, 0.0, 0.0, 0.0, 0.0, 0.0, 0.0, 0.0, 0.0, 0.0, 0.0, 0.0, 0.0, 0.0, 0.0, 0.0, 0.0, 0.0, 0.0, 0.0, 0.0, 0.0, 0.0, 0.0, 0.0, 0.0, 0.0, 0.005217052528364293]
---
header: 
  seq: 13
  stamp: 
    secs: 1639034792
    nsecs: 691171169
  frame_id: "map"
pose: 
  pose: 
    position: 
      x: 2.55094329065
      y: 0.04205907085
      z: 0.0
    orientation: 
      x: 0.0
      y: 0.0
      z: -0.438522535429
      w: 0.898720193342
  covariance: [0.1238541607614918, 0.0035217273643311925, 0.0, 0.0, 0.0, 0.0, 0.0035217273643311786, 0.021799623931857172, 0.0, 0.0, 0.0, 0.0, 0.0, 0.0, 0.0, 0.0, 0.0, 0.0, 0.0, 0.0, 0.0, 0.0, 0.0, 0.0, 0.0, 0.0, 0.0, 0.0, 0.0, 0.0, 0.0, 0.0, 0.0, 0.0, 0.0, 0.10123484369835528]
---
header: 
  seq: 14
  stamp: 
    secs: 1639034793
    nsecs: 195472956
  frame_id: "map"
pose: 
  pose: 
    position: 
      x: 2.54924310182
      y: 0.0610035714908
      z: 0.0
    orientation: 
      x: 0.0
      y: 0.0
      z: -0.660621334678
      w: 0.75071928986
  covariance: [0.0986431607001963, 0.0033934288565033166, 0.0, 0.0, 0.0, 0.0, 0.003393428856503372, 0.027192086351043303, 0.0, 0.0, 0.0, 0.0, 0.0, 0.0, 0.0, 0.0, 0.0, 0.0, 0.0, 0.0, 0.0, 0.0, 0.0, 0.0, 0.0, 0.0, 0.0, 0.0, 0.0, 0.0, 0.0, 0.0, 0.0, 0.0, 0.0, 0.08157985422719123]
---
header: 
  seq: 15
  stamp: 
    secs: 1639034793
    nsecs: 901469469
  frame_id: "map"
pose: 
  pose: 
    position: 
      x: 2.53753872663
      y: -0.0625703518074
      z: 0.0
    orientation: 
      x: 0.0
      y: 0.0
      z: -0.83165842047
      w: 0.555287557632
  covariance: [0.07083964262074804, 0.003942042238167992, 0.0, 0.0, 0.0, 0.0, 0.003942042238167992, 0.028181538783511536, 0.0, 0.0, 0.0, 0.0, 0.0, 0.0, 0.0, 0.0, 0.0, 0.0, 0.0, 0.0, 0.0, 0.0, 0.0, 0.0, 0.0, 0.0, 0.0, 0.0, 0.0, 0.0, 0.0, 0.0, 0.0, 0.0, 0.0, 0.05668082723053536]
---
header: 
  seq: 16
  stamp: 
    secs: 1639034795
    nsecs: 414345741
  frame_id: "map"
pose: 
  pose: 
    position: 
      x: 2.38093172909
      y: -0.265109309957
      z: 0.0
    orientation: 
      x: 0.0
      y: 0.0
      z: -0.854068076684
      w: 0.520161244605
  covariance: [0.05149364490191566, 0.004797344838261441, 0.0, 0.0, 0.0, 0.0, 0.004797344838261441, 0.029776314627988104, 0.0, 0.0, 0.0, 0.0, 0.0, 0.0, 0.0, 0.0, 0.0, 0.0, 0.0, 0.0, 0.0, 0.0, 0.0, 0.0, 0.0, 0.0, 0.0, 0.0, 0.0, 0.0, 0.0, 0.0, 0.0, 0.0, 0.0, 0.042757963215224404]
---
header: 
  seq: 17
  stamp: 
    secs: 1639034797
    nsecs:  28072119
  frame_id: "map"
pose: 
  pose: 
    position: 
      x: 2.2358952511
      y: -0.479802898915
      z: 0.0
    orientation: 
      x: 0.0
      y: 0.0
      z: -0.918945773273
      w: 0.394383906599
  covariance: [0.0410382560622331, 0.003221462444195522, 0.0, 0.0, 0.0, 0.0, 0.003221462444195522, 0.030190838563553923, 0.0, 0.0, 0.0, 0.0, 0.0, 0.0, 0.0, 0.0, 0.0, 0.0, 0.0, 0.0, 0.0, 0.0, 0.0, 0.0, 0.0, 0.0, 0.0, 0.0, 0.0, 0.0, 0.0, 0.0, 0.0, 0.0, 0.0, 0.03132993728805818]
---
header: 
  seq: 18
  stamp: 
    secs: 1639034798
    nsecs: 440124512
  frame_id: "map"
pose: 
  pose: 
    position: 
      x: 2.11026975078
      y: -0.685274086843
      z: 0.0
    orientation: 
      x: 0.0
      y: 0.0
      z: -0.902800201313
      w: 0.430060224282
  covariance: [0.033019766243222115, 0.002220444454698267, 0.0, 0.0, 0.0, 0.0, 0.002220444454698489, 0.028348029855713386, 0.0, 0.0, 0.0, 0.0, 0.0, 0.0, 0.0, 0.0, 0.0, 0.0, 0.0, 0.0, 0.0, 0.0, 0.0, 0.0, 0.0, 0.0, 0.0, 0.0, 0.0, 0.0, 0.0, 0.0, 0.0, 0.0, 0.0, 0.022242461810349418]
---
header: 
  seq: 19
  stamp: 
    secs: 1639034800
    nsecs: 154828548
  frame_id: "map"
pose: 
  pose: 
    position: 
      x: 1.93311822347
      y: -0.898264928116
      z: 0.0
    orientation: 
      x: 0.0
      y: 0.0
      z: -0.901234259559
      w: 0.433332215969
  covariance: [0.025863261246722224, 0.0011477171574760803, 0.0, 0.0, 0.0, 0.0, 0.0011477171574760803, 0.02687777389695667, 0.0, 0.0, 0.0, 0.0, 0.0, 0.0, 0.0, 0.0, 0.0, 0.0, 0.0, 0.0, 0.0, 0.0, 0.0, 0.0, 0.0, 0.0, 0.0, 0.0, 0.0, 0.0, 0.0, 0.0, 0.0, 0.0, 0.0, 0.017731985829650306]
---
header: 
  seq: 20
  stamp: 
    secs: 1639034801
    nsecs: 667652130
  frame_id: "map"
pose: 
  pose: 
    position: 
      x: 1.76681198287
      y: -1.10212170575
      z: 0.0
    orientation: 
      x: 0.0
      y: 0.0
      z: -0.910953963439
      w: 0.412508032038
  covariance: [0.026458677884484416, 0.0001259221813698641, 0.0, 0.0, 0.0, 0.0, 0.0001259221813698641, 0.02266456965799324, 0.0, 0.0, 0.0, 0.0, 0.0, 0.0, 0.0, 0.0, 0.0, 0.0, 0.0, 0.0, 0.0, 0.0, 0.0, 0.0, 0.0, 0.0, 0.0, 0.0, 0.0, 0.0, 0.0, 0.0, 0.0, 0.0, 0.0, 0.013896372584361518]
---
header: 
  seq: 21
  stamp: 
    secs: 1639034803
    nsecs: 281405926
  frame_id: "map"
pose: 
  pose: 
    position: 
      x: 1.57781485675
      y: -1.29772597678
      z: 0.0
    orientation: 
      x: 0.0
      y: 0.0
      z: -0.916338977348
      w: 0.400403394832
  covariance: [0.024935587506329515, -0.0010582776163694518, 0.0, 0.0, 0.0, 0.0, -0.0010582776163694518, 0.02132788828286869, 0.0, 0.0, 0.0, 0.0, 0.0, 0.0, 0.0, 0.0, 0.0, 0.0, 0.0, 0.0, 0.0, 0.0, 0.0, 0.0, 0.0, 0.0, 0.0, 0.0, 0.0, 0.0, 0.0, 0.0, 0.0, 0.0, 0.0, 0.012608231922923728]
---
header: 
  seq: 22
  stamp: 
    secs: 1639034805
    nsecs:  96910477
  frame_id: "map"
pose: 
  pose: 
    position: 
      x: 1.38977284149
      y: -1.49073069326
      z: 0.0
    orientation: 
      x: 0.0
      y: 0.0
      z: -0.920188399176
      w: 0.391475810263
  covariance: [0.022649089071284267, -0.0017827794844236244, 0.0, 0.0, 0.0, 0.0, -0.0017827794844240685, 0.020375553762745024, 0.0, 0.0, 0.0, 0.0, 0.0, 0.0, 0.0, 0.0, 0.0, 0.0, 0.0, 0.0, 0.0, 0.0, 0.0, 0.0, 0.0, 0.0, 0.0, 0.0, 0.0, 0.0, 0.0, 0.0, 0.0, 0.0, 0.0, 0.01077324657078934]
---
header: 
  seq: 23
  stamp: 
    secs: 1639034808
    nsecs: 727837563
  frame_id: "map"
pose: 
  pose: 
    position: 
      x: 1.23499203602
      y: -1.6272105592
      z: 0.0
    orientation: 
      x: 0.0
      y: 0.0
      z: -0.786055423813
      w: 0.618156024556
  covariance: [0.03416082010912436, 0.009000809434749568, 0.0, 0.0, 0.0, 0.0, 0.009000809434749568, 0.03026467696836299, 0.0, 0.0, 0.0, 0.0, 0.0, 0.0, 0.0, 0.0, 0.0, 0.0, 0.0, 0.0, 0.0, 0.0, 0.0, 0.0, 0.0, 0.0, 0.0, 0.0, 0.0, 0.0, 0.0, 0.0, 0.0, 0.0, 0.0, 0.029741564394399577]
---
header: 
  seq: 24
  stamp: 
    secs: 1639034809
    nsecs: 332945108
  frame_id: "map"
pose: 
  pose: 
    position: 
      x: 1.23979261303
      y: -1.51447638428
      z: 0.0
    orientation: 
      x: 0.0
      y: 0.0
      z: -0.60589781901
      w: 0.795542477131
  covariance: [0.028243362833165087, 0.007597535011342416, 0.0, 0.0, 0.0, 0.0, 0.007597535011342416, 0.027460080178085544, 0.0, 0.0, 0.0, 0.0, 0.0, 0.0, 0.0, 0.0, 0.0, 0.0, 0.0, 0.0, 0.0, 0.0, 0.0, 0.0, 0.0, 0.0, 0.0, 0.0, 0.0, 0.0, 0.0, 0.0, 0.0, 0.0, 0.0, 0.023881151226409027]
---
header: 
  seq: 25
  stamp: 
    secs: 1639034809
    nsecs: 938125849
  frame_id: "map"
pose: 
  pose: 
    position: 
      x: 1.18418432849
      y: -1.40832245131
      z: 0.0
    orientation: 
      x: 0.0
      y: 0.0
      z: -0.375219874769
      w: 0.926935836819
  covariance: [0.02284300011104956, 0.004141568209814039, 0.0, 0.0, 0.0, 0.0, 0.004141568209814039, 0.02483046064101302, 0.0, 0.0, 0.0, 0.0, 0.0, 0.0, 0.0, 0.0, 0.0, 0.0, 0.0, 0.0, 0.0, 0.0, 0.0, 0.0, 0.0, 0.0, 0.0, 0.0, 0.0, 0.0, 0.0, 0.0, 0.0, 0.0, 0.0, 0.018766365627756847]
---
header: 
  seq: 26
  stamp: 
    secs: 1639034810
    nsecs: 543322086
  frame_id: "map"
pose: 
  pose: 
    position: 
      x: 1.09157929858
      y: -1.35169449571
      z: 0.0
    orientation: 
      x: 0.0
      y: 0.0
      z: -0.135931249677
      w: 0.990718272447
  covariance: [0.022019909742229116, 0.0015897223961482965, 0.0, 0.0, 0.0, 0.0, 0.0015897223961482965, 0.024457836570475067, 0.0, 0.0, 0.0, 0.0, 0.0, 0.0, 0.0, 0.0, 0.0, 0.0, 0.0, 0.0, 0.0, 0.0, 0.0, 0.0, 0.0, 0.0, 0.0, 0.0, 0.0, 0.0, 0.0, 0.0, 0.0, 0.0, 0.0, 0.015749181426341703]
---
header: 
  seq: 27
  stamp: 
    secs: 1639034811
    nsecs: 148408175
  frame_id: "map"
pose: 
  pose: 
    position: 
      x: 0.972864668769
      y: -1.35032891877
      z: 0.0
    orientation: 
      x: 0.0
      y: 0.0
      z: 0.123025474955
      w: 0.992403512948
  covariance: [0.020916259640225254, 0.0029270988627214667, 0.0, 0.0, 0.0, 0.0, 0.0029270988627214667, 0.01908361847055673, 0.0, 0.0, 0.0, 0.0, 0.0, 0.0, 0.0, 0.0, 0.0, 0.0, 0.0, 0.0, 0.0, 0.0, 0.0, 0.0, 0.0, 0.0, 0.0, 0.0, 0.0, 0.0, 0.0, 0.0, 0.0, 0.0, 0.0, 0.013255652279916355]
---
header: 
  seq: 28
  stamp: 
    secs: 1639034811
    nsecs: 854509830
  frame_id: "map"
pose: 
  pose: 
    position: 
      x: 0.905132473266
      y: -1.38383368661
      z: 0.0
    orientation: 
      x: 0.0
      y: 0.0
      z: 0.405682668689
      w: 0.91401398913
  covariance: [0.021347667927524072, 0.0036539086178475344, 0.0, 0.0, 0.0, 0.0, 0.0036539086178475344, 0.01593783870693377, 0.0, 0.0, 0.0, 0.0, 0.0, 0.0, 0.0, 0.0, 0.0, 0.0, 0.0, 0.0, 0.0, 0.0, 0.0, 0.0, 0.0, 0.0, 0.0, 0.0, 0.0, 0.0, 0.0, 0.0, 0.0, 0.0, 0.0, 0.012954164305509455]
---
header: 
  seq: 29
  stamp: 
    secs: 1639034812
    nsecs: 459601164
  frame_id: "map"
pose: 
  pose: 
    position: 
      x: 0.928821851374
      y: -1.34183102212
      z: 0.0
    orientation: 
      x: 0.0
      y: 0.0
      z: 0.616876377748
      w: 0.787060057795
  covariance: [0.01924800643121305, 0.0037333006081474718, 0.0, 0.0, 0.0, 0.0, 0.0037333006081472497, 0.015210119192300642, 0.0, 0.0, 0.0, 0.0, 0.0, 0.0, 0.0, 0.0, 0.0, 0.0, 0.0, 0.0, 0.0, 0.0, 0.0, 0.0, 0.0, 0.0, 0.0, 0.0, 0.0, 0.0, 0.0, 0.0, 0.0, 0.0, 0.0, 0.012546352507564132]
---
header: 
  seq: 30
  stamp: 
    secs: 1639034813
    nsecs:  64823627
  frame_id: "map"
pose: 
  pose: 
    position: 
      x: 0.937712052195
      y: -1.25529555349
      z: 0.0
    orientation: 
      x: 0.0
      y: 0.0
      z: 0.795411562404
      w: 0.606069671238
  covariance: [0.01761023207177237, 0.003654838342212141, 0.0, 0.0, 0.0, 0.0, 0.003654838342212141, 0.017908703361943612, 0.0, 0.0, 0.0, 0.0, 0.0, 0.0, 0.0, 0.0, 0.0, 0.0, 0.0, 0.0, 0.0, 0.0, 0.0, 0.0, 0.0, 0.0, 0.0, 0.0, 0.0, 0.0, 0.0, 0.0, 0.0, 0.0, 0.0, 0.012940433280293654]
---
header: 
  seq: 31
  stamp: 
    secs: 1639034814
    nsecs: 577678204
  frame_id: "map"
pose: 
  pose: 
    position: 
      x: 0.828447044197
      y: -1.04818441449
      z: 0.0
    orientation: 
      x: 0.0
      y: 0.0
      z: 0.836834786843
      w: 0.547455513744
  covariance: [0.01653318041554952, 0.0029426878644090992, 0.0, 0.0, 0.0, 0.0, 0.0029426878644092103, 0.018630415185251215, 0.0, 0.0, 0.0, 0.0, 0.0, 0.0, 0.0, 0.0, 0.0, 0.0, 0.0, 0.0, 0.0, 0.0, 0.0, 0.0, 0.0, 0.0, 0.0, 0.0, 0.0, 0.0, 0.0, 0.0, 0.0, 0.0, 0.0, 0.014034375815233256]
---
header: 
  seq: 32
  stamp: 
    secs: 1639034815
    nsecs: 788011551
  frame_id: "map"
pose: 
  pose: 
    position: 
      x: 0.793442100511
      y: -0.852699073089
      z: 0.0
    orientation: 
      x: 0.0
      y: 0.0
      z: 0.790560648185
      w: 0.612383753492
  covariance: [0.015113942671275526, 0.002123803466947516, 0.0, 0.0, 0.0, 0.0, 0.002123803466947516, 0.01775851420269403, 0.0, 0.0, 0.0, 0.0, 0.0, 0.0, 0.0, 0.0, 0.0, 0.0, 0.0, 0.0, 0.0, 0.0, 0.0, 0.0, 0.0, 0.0, 0.0, 0.0, 0.0, 0.0, 0.0, 0.0, 0.0, 0.0, 0.0, 0.012953760116819809]
---
header: 
  seq: 33
  stamp: 
    secs: 1639034817
    nsecs:  99145412
  frame_id: "map"
pose: 
  pose: 
    position: 
      x: 0.720312135317
      y: -0.652201665216
      z: 0.0
    orientation: 
      x: 0.0
      y: 0.0
      z: 0.827123240689
      w: 0.562020591003
  covariance: [0.015999840434002044, 0.002109178369664122, 0.0, 0.0, 0.0, 0.0, 0.0021091783696640665, 0.016461779883121086, 0.0, 0.0, 0.0, 0.0, 0.0, 0.0, 0.0, 0.0, 0.0, 0.0, 0.0, 0.0, 0.0, 0.0, 0.0, 0.0, 0.0, 0.0, 0.0, 0.0, 0.0, 0.0, 0.0, 0.0, 0.0, 0.0, 0.0, 0.011761522826812683]
---
header: 
  seq: 34
  stamp: 
    secs: 1639034818
    nsecs: 410350800
  frame_id: "map"
pose: 
  pose: 
    position: 
      x: 0.662353924421
      y: -0.43542884858
      z: 0.0
    orientation: 
      x: 0.0
      y: 0.0
      z: 0.804359398225
      w: 0.594143045475
  covariance: [0.016140303275257062, 0.0027705239996914655, 0.0, 0.0, 0.0, 0.0, 0.0027705239996914655, 0.015157788819792128, 0.0, 0.0, 0.0, 0.0, 0.0, 0.0, 0.0, 0.0, 0.0, 0.0, 0.0, 0.0, 0.0, 0.0, 0.0, 0.0, 0.0, 0.0, 0.0, 0.0, 0.0, 0.0, 0.0, 0.0, 0.0, 0.0, 0.0, 0.011601764859402659]
---
header: 
  seq: 35
  stamp: 
    secs: 1639034819
    nsecs: 822412491
  frame_id: "map"
pose: 
  pose: 
    position: 
      x: 0.607451807958
      y: -0.22093830157
      z: 0.0
    orientation: 
      x: 0.0
      y: 0.0
      z: 0.812431338852
      w: 0.583056875143
  covariance: [0.018350216358077653, 0.002903376156719234, 0.0, 0.0, 0.0, 0.0, 0.002903376156719234, 0.014579160390819267, 0.0, 0.0, 0.0, 0.0, 0.0, 0.0, 0.0, 0.0, 0.0, 0.0, 0.0, 0.0, 0.0, 0.0, 0.0, 0.0, 0.0, 0.0, 0.0, 0.0, 0.0, 0.0, 0.0, 0.0, 0.0, 0.0, 0.0, 0.011293485373843686]
---
header: 
  seq: 36
  stamp: 
    secs: 1639034821
    nsecs: 940458298
  frame_id: "map"
pose: 
  pose: 
    position: 
      x: 0.539723107531
      y: -0.0182643214213
      z: 0.0
    orientation: 
      x: 0.0
      y: 0.0
      z: 0.848899301203
      w: 0.528554610629
  covariance: [0.019779039352135874, 0.0035179443162492692, 0.0, 0.0, 0.0, 0.0, 0.003517944316249271, 0.01426400379529505, 0.0, 0.0, 0.0, 0.0, 0.0, 0.0, 0.0, 0.0, 0.0, 0.0, 0.0, 0.0, 0.0, 0.0, 0.0, 0.0, 0.0, 0.0, 0.0, 0.0, 0.0, 0.0, 0.0, 0.0, 0.0, 0.0, 0.0, 0.010022016583156266]
---
